pano_id,lat,lng,date,year,filename
m6LXMak-9zVZsViiXZMDDA,19.41760679806719,-99.17856940740616,2024-10,2024,gs_00000_m6LXMak-9zVZsViiXZMDDA
5N22ddnH1NGfzLb857Kadg,19.41801217776016,-99.17834281152984,2024-10,2024,gs_00001_5N22ddnH1NGfzLb857Kadg
Pyy2kpwXx8OULEExN11g2w,19.41841401710427,-99.17811866642444,2024-10,2024,gs_00002_Pyy2kpwXx8OULEExN11g2w
GbOPMIu7FewlbzgiEDqTIg,19.41881476953521,-99.17790711051748,2024-10,2024,gs_00003_GbOPMIu7FewlbzgiEDqTIg
rDyR3OOga-jpNrwEITx62Q,19.41934757734997,-99.17775283727217,2024-10,2024,gs_00004_rDyR3OOga-jpNrwEITx62Q
UuR7W0oUdjZROhyatZMGew,19.41962095890018,-99.17771988738416,2024-10,2024,gs_00005_UuR7W0oUdjZROhyatZMGew
8IM6ygB28zKyRciJ6lTx-g,19.41979281383909,-99.17771388881626,2024-10,2024,gs_00006_8IM6ygB28zKyRciJ6lTx-g
xRdjh__PkmpMgnHnJyfCDA,19.42044119101756,-99.17737087286196,2021-10,2021,gs_00007_xRdjh__PkmpMgnHnJyfCDA
qNHHkFknPMJeNKltNyjYyw,19.42061751347597,-99.17746837035116,2022-09,2022,gs_00008_qNHHkFknPMJeNKltNyjYyw
WYznX0cOLlyiKCJermZtVw,19.42321202454911,-99.17749650439734,2024-10,2024,gs_00009_WYznX0cOLlyiKCJermZtVw
vM06iqo6zAc5aKMuI1zSQQ,19.42066156856609,-99.1773548204271,2022-03,2022,gs_00010_vM06iqo6zAc5aKMuI1zSQQ
nGjky9L1iGiVwJMj8jOFyw,19.42067417652099,-99.17728165515932,2024-12,2024,gs_00011_nGjky9L1iGiVwJMj8jOFyw
4hpmScEMvW2RbEu748F7fg,19.42328943368038,-99.17738658735396,2024-10,2024,gs_00012_4hpmScEMvW2RbEu748F7fg
Az08ljlsXX2GOgNjQ1AfEw,19.42332097496708,-99.1773035371435,2024-10,2024,gs_00013_Az08ljlsXX2GOgNjQ1AfEw
rx22-yIIHcQAgL-hquqlHw,19.42361053508873,-99.17729559541884,2022-10,2022,gs_00014_rx22-yIIHcQAgL-hquqlHw
x6okTbGli0Luxr5KQAGV_w,19.42068860827882,-99.17720266040116,2024-10,2024,gs_00015_x6okTbGli0Luxr5KQAGV_w
cvtJ-s6PcyRZ5rxD0UvHLw,19.42172004625574,-99.17615258666248,2022-10,2022,gs_00016_cvtJ-s6PcyRZ5rxD0UvHLw
I8KeNqaonXmS4IlaqIdwYA,19.42331975260234,-99.17709341964976,2024-10,2024,gs_00017_I8KeNqaonXmS4IlaqIdwYA
fB0t94tBtYTBtEoXYk1EfA,19.42357771524425,-99.177100432006,2022-10,2022,gs_00018_fB0t94tBtYTBtEoXYk1EfA
yYSyn7FziWdUkBEL1VVwkg,19.42035584647429,-99.17679442348862,2022-06,2022,gs_00019_yYSyn7FziWdUkBEL1VVwkg
wWXB_dISK5oId_akMv6CyQ,19.42329400984519,-99.17690408626328,2024-10,2024,gs_00020_wWXB_dISK5oId_akMv6CyQ
LbgNjFbp2vCQ7GY6KgaSjQ,19.42139974464209,-99.17633963717036,2022-10,2022,gs_00021_LbgNjFbp2vCQ7GY6KgaSjQ
RAcDfQhxhUoQdanlsF34Tw,19.4215657632248,-99.17624476009676,2022-10,2022,gs_00022_RAcDfQhxhUoQdanlsF34Tw
wPYEyrB2NcNs2e1i6pE9EQ,19.42326814694249,-99.17671357052184,2024-10,2024,gs_00023_wPYEyrB2NcNs2e1i6pE9EQ
nEFrYVnFdjI1cWJHST9QCg,19.42050387274814,-99.17643882311783,2022-06,2022,gs_00024_nEFrYVnFdjI1cWJHST9QCg
QODNUsGdAvlv0ybP9c_kQA,19.42121720243639,-99.17636844670466,2022-10,2022,gs_00025_QODNUsGdAvlv0ybP9c_kQA
ra9Kd0ee7r5XtI4WtPnk2Q,19.42130978607371,-99.17636717942288,2022-10,2022,gs_00026_ra9Kd0ee7r5XtI4WtPnk2Q
mRAg0BqstrSSDuAO687SNA,19.42148325489621,-99.17629384608432,2022-10,2022,gs_00027_mRAg0BqstrSSDuAO687SNA
CTBm3QIkkthdrJ0b1rhHGQ,19.42164281268136,-99.17619871560905,2022-10,2022,gs_00028_CTBm3QIkkthdrJ0b1rhHGQ
aJleE6GfxV_PFjyWSHkTFQ,19.42179663333966,-99.17610679568314,2022-10,2022,gs_00029_aJleE6GfxV_PFjyWSHkTFQ
36EbYTgAKGf2JOS1EkPBxQ,19.42204205212725,-99.17596384688984,2022-10,2022,gs_00030_36EbYTgAKGf2JOS1EkPBxQ
AllE2XuqijY4JQSnDix6dQ,19.4232711158511,-99.17625565870416,2022-10,2022,gs_00031_AllE2XuqijY4JQSnDix6dQ
enSjOIC_9Sx3LYMCpm2Zgg,19.42324637703169,-99.17652922268266,2024-10,2024,gs_00032_enSjOIC_9Sx3LYMCpm2Zgg
gg2JGdo3L1o2ZsAdItm5bA,19.42105006744656,-99.17629545130649,2022-10,2022,gs_00033_gg2JGdo3L1o2ZsAdItm5bA
KCSxTf5BLzTLLUSIxKBTIQ,19.42187590920632,-99.17605939951248,2022-10,2022,gs_00034_KCSxTf5BLzTLLUSIxKBTIQ
8t4thmbU3tgZkd6DMS727w,19.4221274035536,-99.17591721116835,2022-10,2022,gs_00035_8t4thmbU3tgZkd6DMS727w
wiFf4KIc2BWWe-ucUOAs-Q,19.42325089551399,-99.17634242518936,2024-10,2024,gs_00036_wiFf4KIc2BWWe-ucUOAs-Q
ZfJjPCqHDnJ1Q67w-d7Bqg,19.42343780953392,-99.17627880768909,2022-10,2022,gs_00037_ZfJjPCqHDnJ1Q67w-d7Bqg
xc_DtmapGuELn8RpSQsbLw,19.42097324044905,-99.17612411514642,2022-10,2022,gs_00038_xc_DtmapGuELn8RpSQsbLw
X1VK5oe7s9Mw_PYibQYlfA,19.42099071989034,-99.17603287118672,2022-10,2022,gs_00039_X1VK5oe7s9Mw_PYibQYlfA
jsGnqNZ2zG36o9XpKpG7MA,19.42195870874567,-99.17600989124288,2022-10,2022,gs_00040_jsGnqNZ2zG36o9XpKpG7MA
dWJzWHeydX5KZHFZbrb_oQ,19.42228460692708,-99.17583128999156,2022-10,2022,gs_00041_dWJzWHeydX5KZHFZbrb_oQ
-81mo4guefXU9IJ0x7KN5Q,19.42244402817408,-99.17574418611956,2022-10,2022,gs_00042_-81mo4guefXU9IJ0x7KN5Q
3xIB__2aJ_2OnX-nCsO07A,19.42339856165503,-99.17608094322296,2022-10,2022,gs_00043_3xIB__2aJ_2OnX-nCsO07A
akmMQxpnBGZ4qvriG7Moww,19.42101076789233,-99.17592819421628,2022-10,2022,gs_00044_akmMQxpnBGZ4qvriG7Moww
SDlx0djqqM_4AvwbA11ykQ,19.4210298354866,-99.17582867096009,2022-10,2022,gs_00045_SDlx0djqqM_4AvwbA11ykQ
Kpf5PkdzHj9MJFAq0KEQ8A,19.42221072129114,-99.17587167377803,2022-10,2022,gs_00046_Kpf5PkdzHj9MJFAq0KEQ8A
vhjr7Rsrbn-QXlxvjCsVmw,19.42236339488099,-99.1757882027104,2022-10,2022,gs_00047_vhjr7Rsrbn-QXlxvjCsVmw
Tm3rSO3PQq2h7nq2Om7l1Q,19.42261456850866,-99.17565057702012,2022-10,2022,gs_00048_Tm3rSO3PQq2h7nq2Om7l1Q
HICggYF6Pwfyzvk-leUy_A,19.42337849060097,-99.17588612070244,2022-10,2022,gs_00049_HICggYF6Pwfyzvk-leUy_A
US0pACyb4KHxJIorTOy8Hw,19.42096886692556,-99.17566730499198,2024-12,2024,gs_00050_US0pACyb4KHxJIorTOy8Hw
e1fEfwWFEVnSU7fJ5_Asxg,19.42106612969599,-99.17563934055616,2022-10,2022,gs_00051_e1fEfwWFEVnSU7fJ5_Asxg
1hR7m1wAHcTtEt8hMQCT3Q,19.42252956378973,-99.17569746604096,2022-10,2022,gs_00052_1hR7m1wAHcTtEt8hMQCT3Q
H7BioxGvTxKBlR20UGq7xg,19.42268690381047,-99.1755875514605,2022-10,2022,gs_00053_H7BioxGvTxKBlR20UGq7xg
jUBZRSmL0_T3IbW8Xk7GBA,19.4234064247712,-99.1757304995838,2022-03,2022,gs_00054_jUBZRSmL0_T3IbW8Xk7GBA
ReQtjXyTuxDxTp1N3OIEPQ,19.42100507934096,-99.17546893512588,2024-12,2024,gs_00055_ReQtjXyTuxDxTp1N3OIEPQ
ABcB3dLVG7NB3V8ysN46Dw,19.42109278745303,-99.17550712213188,2022-10,2022,gs_00056_ABcB3dLVG7NB3V8ysN46Dw
XS-saqP8s6sxaSbP1dmOBg,19.42111301962816,-99.17541655474902,2022-10,2022,gs_00057_XS-saqP8s6sxaSbP1dmOBg
gkhuBJ1TfP9JFWBoLjXRzw,19.42115550013973,-99.17522401491549,2022-10,2022,gs_00058_gkhuBJ1TfP9JFWBoLjXRzw
A9DoYiThmpQ9Jes1fgFLyw,19.42272236139781,-99.17548929589452,2022-10,2022,gs_00059_A9DoYiThmpQ9Jes1fgFLyw
4Cw6zTTTEhUQ956agJIsbQ,19.42342542989386,-99.17548312852422,2022-10,2022,gs_00060_4Cw6zTTTEhUQ956agJIsbQ
xl-T9u5CBnUhxnZJKBCCqw,19.42102347443684,-99.17536848311065,2024-12,2024,gs_00061_xl-T9u5CBnUhxnZJKBCCqw
pioBmgBbT0EZUc7WSkfsKA,19.42113475012264,-99.1753194821732,2022-10,2022,gs_00062_pioBmgBbT0EZUc7WSkfsKA
-rHWZvelBIiNg0EAdYuTOw,19.4211745504822,-99.17513370130447,2022-10,2022,gs_00063_-rHWZvelBIiNg0EAdYuTOw
sslGft6QF87LL2GB4XJy2A,19.42222655401527,-99.17495383474298,2022-10,2022,gs_00064_sslGft6QF87LL2GB4XJy2A
yqPxDyj5yELgCs9sEHHK5Q,19.42238091943879,-99.1750641708762,2022-10,2022,gs_00065_yqPxDyj5yELgCs9sEHHK5Q
LSbCaDp-jiOWY7lFqQpHww,19.42245571510952,-99.1751176493169,2022-10,2022,gs_00066_LSbCaDp-jiOWY7lFqQpHww
KxzYG0YuVqvRUfPSbDzhdg,19.42260221940123,-99.17522519769496,2022-10,2022,gs_00067_KxzYG0YuVqvRUfPSbDzhdg
1U0iSCEx-yYHxTyOlURwfg,19.42106293187267,-99.17516817084656,2024-12,2024,gs_00068_1U0iSCEx-yYHxTyOlURwfg
r2xqgfBSOmVwpXsgzy2Qyw,19.42119277027526,-99.17504735854594,2022-10,2022,gs_00069_r2xqgfBSOmVwpXsgzy2Qyw
3OpKwmGr1b_erMTddUFEvQ,19.42199860440633,-99.17479094982508,2022-10,2022,gs_00070_3OpKwmGr1b_erMTddUFEvQ
-GBQ5uL9w7H6nt9a1YRUtg,19.42215062792502,-99.17489959605622,2022-10,2022,gs_00071_-GBQ5uL9w7H6nt9a1YRUtg
QIrkhs8OWkhkLJxOagrk2Q,19.42230343060451,-99.1750088338226,2022-10,2022,gs_00072_QIrkhs8OWkhkLJxOagrk2Q
fW3n8ZaE0_-N6ax33sPd7Q,19.42274192455251,-99.17515456889312,2022-11,2022,gs_00073_fW3n8ZaE0_-N6ax33sPd7Q
GiG5aLJ7BqKRyhe4Ld9E8Q,19.42300415179555,-99.1751342082094,2022-11,2022,gs_00074_GiG5aLJ7BqKRyhe4Ld9E8Q
_zbruh4BwKmygwuJu16tag,19.4212148899767,-99.17494259837652,2022-10,2022,gs_00075__zbruh4BwKmygwuJu16tag
3Os7tcb4KqGKkACCt1ClyQ,19.42123322954668,-99.17485566443648,2022-10,2022,gs_00076_3Os7tcb4KqGKkACCt1ClyQ
yHYkrJItvR7IPURPqW1aeg,19.42177151498402,-99.17462172896629,2022-10,2022,gs_00077_yHYkrJItvR7IPURPqW1aeg
WfvuFoCuJn-OHcuy9a8-cA,19.4219194713001,-99.1747343457038,2022-10,2022,gs_00078_WfvuFoCuJn-OHcuy9a8-cA
KsZYDh9EiGc2FtkIOPirqw,19.42207426936555,-99.17484501947072,2022-10,2022,gs_00079_KsZYDh9EiGc2FtkIOPirqw
y4GS-va-GuJmIRPOP3umEg,19.42243093721464,-99.1749287430095,2022-11,2022,gs_00080_y4GS-va-GuJmIRPOP3umEg
QPB7OHiZqcNfeHNOxHKxOw,19.42251361561902,-99.17499523189616,2022-11,2022,gs_00081_QPB7OHiZqcNfeHNOxHKxOw
p-xRuNMd13at05CzHmrVgA,19.42266852901627,-99.17510362495145,2022-11,2022,gs_00082_p-xRuNMd13at05CzHmrVgA
fWwvBpv2P1E9tzlIMJWB9g,19.42309311152994,-99.17503764287932,2022-11,2022,gs_00083_fWwvBpv2P1E9tzlIMJWB9g
qzvNZ4sbexQL9Tu3wVBC8A,19.42115845159956,-99.1746828951267,2024-12,2024,gs_00084_qzvNZ4sbexQL9Tu3wVBC8A
BV4jqUzgDR3ISE8PQyySYQ,19.42127406961042,-99.17466177420968,2022-10,2022,gs_00085_BV4jqUzgDR3ISE8PQyySYQ
V2SxHdQRq41MTK0pL6MOKw,19.42184485100871,-99.17468095200208,2022-10,2022,gs_00086_V2SxHdQRq41MTK0pL6MOKw
mFU5hQgSI0hzll2MhxPCmw,19.42218016639318,-99.17474777861852,2022-11,2022,gs_00087_mFU5hQgSI0hzll2MhxPCmw
VTG4rH5nqFkgUA_hd5VUOQ,19.42233153058153,-99.1748552420172,2022-11,2022,gs_00088_VTG4rH5nqFkgUA_hd5VUOQ
EsQk2rsOXKYZ7q051K3pHQ,19.42259209346244,-99.17504879477502,2022-11,2022,gs_00089_EsQk2rsOXKYZ7q051K3pHQ
tU-Yld-wqOuBCJEITLMD8Q,19.42119779698052,-99.17448300699068,2024-12,2024,gs_00090_tU-Yld-wqOuBCJEITLMD8Q
-wNzgUs8_uxjksht-QeDKw,19.42133397645637,-99.1745086054858,2022-10,2022,gs_00091_-wNzgUs8_uxjksht-QeDKw
dzurOH_aXMDthAz3pfUPOQ,19.4219358702102,-99.17460762020386,2022-11,2022,gs_00092_dzurOH_aXMDthAz3pfUPOQ
KtUNNafmehWjlTZl58SNrg,19.4221051221587,-99.17469210384826,2022-11,2022,gs_00093_KtUNNafmehWjlTZl58SNrg
NVcABgAIJ90pFYm2F7suDg,19.42225619103207,-99.17480184823508,2022-11,2022,gs_00094_NVcABgAIJ90pFYm2F7suDg
4V8yWr2lRo5cSTrOqLk1Zg,19.42098525491016,-99.17428573833348,2023-05,2023,gs_00095_4V8yWr2lRo5cSTrOqLk1Zg
4Id4wPP9YM8vxHy1tjCJzw,19.42122807962513,-99.17432890929152,2022-11,2022,gs_00096_4Id4wPP9YM8vxHy1tjCJzw
1aVQqU6W8GaEl4ogSkW_jw,19.42202818550969,-99.1746382877565,2022-11,2022,gs_00097_1aVQqU6W8GaEl4ogSkW_jw
ZxjdxhlZx7_Yxxgru07KAg,19.42123150105072,-99.17408737188136,2022-10,2022,gs_00098_ZxjdxhlZx7_Yxxgru07KAg
_0MsRwlZejHMO98tNvIljA,19.42119264734619,-99.17387988177288,2022-05,2022,gs_00099__0MsRwlZejHMO98tNvIljA
UIRYxgW-aN3_tAmxp2_4Jg,19.42124414748234,-99.17369030251724,2022-05,2022,gs_00100_UIRYxgW-aN3_tAmxp2_4Jg
r2Fz3b9vw5BtfWejgQzzfQ,19.42134351388999,-99.17369714561092,2024-12,2024,gs_00101_r2Fz3b9vw5BtfWejgQzzfQ
44ppRjQNRSVdfrWpNdYkkQ,19.42283517012827,-99.17373076970937,2022-03,2022,gs_00102_44ppRjQNRSVdfrWpNdYkkQ
pHVXJ1Sme5vS9I6BJ9ZrCg,19.42138569294479,-99.17350697540982,2024-12,2024,gs_00103_pHVXJ1Sme5vS9I6BJ9ZrCg
wI-KyvBIU9-cLjr1jyQb8Q,19.42223161301007,-99.1735242943122,2022-11,2022,gs_00104_wI-KyvBIU9-cLjr1jyQb8Q
sEmhHHK7BbozjDMT2Fs4hQ,19.4229211848614,-99.1735485407818,2022-03,2022,gs_00105_sEmhHHK7BbozjDMT2Fs4hQ
L9Y_lX59dwVkD9kfMngD_Q,19.42296137297513,-99.17346338248184,2022-03,2022,gs_00106_L9Y_lX59dwVkD9kfMngD_Q
l8L9MbfjEUfjKrkP8DpNXQ,19.42142691720091,-99.17332145218266,2024-12,2024,gs_00107_l8L9MbfjEUfjKrkP8DpNXQ
DTbJ74TeXW_jnWa7PWnIdw,19.42220413934823,-99.17331934012655,2022-10,2022,gs_00108_DTbJ74TeXW_jnWa7PWnIdw
aMdyTtkPhZUACgPICelxpw,19.42225231570289,-99.17321137189133,2022-10,2022,gs_00109_aMdyTtkPhZUACgPICelxpw
aA8Cg5MvCknivhzgJ9Jt0g,19.4230140537376,-99.17335169683253,2022-03,2022,gs_00110_aA8Cg5MvCknivhzgJ9Jt0g
MsI5LHH_LuOpAtFf65tl4A,19.4230562668072,-99.17326206118555,2022-03,2022,gs_00111_MsI5LHH_LuOpAtFf65tl4A
x_gqw2GZwWWZocBJ1WX7kw,19.4231027011538,-99.17316363950184,2022-03,2022,gs_00112_x_gqw2GZwWWZocBJ1WX7kw
ZmhiDws2s9Y5qj6Q1CEoOw,19.42136452933892,-99.17307087823148,2022-05,2022,gs_00113_ZmhiDws2s9Y5qj6Q1CEoOw
wOvuZt87YozcejYi8TSzcQ,19.42230060331451,-99.17310298139124,2022-10,2022,gs_00114_wOvuZt87YozcejYi8TSzcQ
i8Ft9RiDuvptwn07jYzj0Q,19.42234053843685,-99.1730174856363,2022-10,2022,gs_00115_i8Ft9RiDuvptwn07jYzj0Q
kAbBI4nBpfnm3Rw9r2xWZA,19.42314631412827,-99.1730712161594,2022-03,2022,gs_00116_kAbBI4nBpfnm3Rw9r2xWZA
NVRuR7HoB_u91kH5-taHnQ,19.4231884200726,-99.1729819187532,2022-03,2022,gs_00117_NVRuR7HoB_u91kH5-taHnQ
JBZ72ZVgps3hRsjpZ6sbUw,19.42140457996581,-99.17288544049414,2022-05,2022,gs_00118_JBZ72ZVgps3hRsjpZ6sbUw
3nAvZttUc5Ul7HgktVJ_Ag,19.42238341905438,-99.17292709002608,2022-10,2022,gs_00119_3nAvZttUc5Ul7HgktVJ_Ag
8BaOD6o5YnIRAd0vNFz2hw,19.42242388503837,-99.172841763422,2022-10,2022,gs_00120_8BaOD6o5YnIRAd0vNFz2hw
pv2n8sNz0HxqeU4YWa50tQ,19.42246436382847,-99.17275618346363,2022-10,2022,gs_00121_pv2n8sNz0HxqeU4YWa50tQ
Y5FhhzmJslPDXwzQ2fF5yw,19.42323022201952,-99.17289329730072,2022-03,2022,gs_00122_Y5FhhzmJslPDXwzQ2fF5yw
jI5J7ekak0uTu1NoPxPh1g,19.42327181843948,-99.17280518283634,2022-03,2022,gs_00123_jI5J7ekak0uTu1NoPxPh1g
OqDWp7VZmeq-jwwV4Y-Xyg,19.42331231454923,-99.17271926499056,2022-03,2022,gs_00124_OqDWp7VZmeq-jwwV4Y-Xyg
kbbzFrfkjhGGle7Bg9Eygw,19.42144332479987,-99.1727062548233,2022-05,2022,gs_00125_kbbzFrfkjhGGle7Bg9Eygw
IKG-RVZ0_d04LnIDT2K3Dw,19.42156593153283,-99.17270693067609,2024-12,2024,gs_00126_IKG-RVZ0_d04LnIDT2K3Dw
gsn5vAv39xHgCPLno6ojfA,19.42250573309082,-99.17266899844694,2022-10,2022,gs_00127_gsn5vAv39xHgCPLno6ojfA
-45OtAjozoO3sSBQO57mqg,19.42254770597267,-99.1725805463029,2022-10,2022,gs_00128_-45OtAjozoO3sSBQO57mqg
5MPQ6iwVZyG3p5YLA8m9oQ,19.42372002004723,-99.17252140929824,2024-12,2024,gs_00129_5MPQ6iwVZyG3p5YLA8m9oQ
S5y0GG-ipk0KFMHUqZT0Vw,19.42386835855411,-99.17260344078356,2022-10,2022,gs_00130_S5y0GG-ipk0KFMHUqZT0Vw
W-f5qRpUQldG3ZDLvwOaTA,19.42160962923961,-99.1725098353467,2024-12,2024,gs_00131_W-f5qRpUQldG3ZDLvwOaTA
OwCDDCzgl-mhx_xXezfwkA,19.42258968738012,-99.1724919252936,2022-10,2022,gs_00132_OwCDDCzgl-mhx_xXezfwkA
VtzhqYiyVX0bWB71gGgdVQ,19.42263227240515,-99.172402037163,2022-10,2022,gs_00133_VtzhqYiyVX0bWB71gGgdVQ
H711SynpNEZlHrO5tPfLhA,19.42306375668105,-99.1722015633396,2024-12,2024,gs_00134_H711SynpNEZlHrO5tPfLhA
ObiTW7SYxIIugwUYm9d_8Q,19.42335199720329,-99.17263520583025,2022-03,2022,gs_00135_ObiTW7SYxIIugwUYm9d_8Q
G1iDVP_MKOEf4cTa87QsVw,19.42338876431626,-99.17255722942156,2022-03,2022,gs_00136_G1iDVP_MKOEf4cTa87QsVw
zXfwa19LEtln9MUn231EfQ,19.42363784194658,-99.17247697209196,2024-12,2024,gs_00137_zXfwa19LEtln9MUn231EfQ
i5_wxhgrqa8Gfc12JTPhVw,19.42380417629255,-99.17256762063958,2024-12,2024,gs_00138_i5_wxhgrqa8Gfc12JTPhVw
SXOw_LNcvitVYcUI8HFBjQ,19.42153519301596,-99.17228764959349,2022-03,2022,gs_00139_SXOw_LNcvitVYcUI8HFBjQ
OWGiD0K0QqgDLNkiw14K6w,19.42267485312065,-99.17231223361424,2022-10,2022,gs_00140_OWGiD0K0QqgDLNkiw14K6w
NSXHShp4GS6XaRKuSB-HUg,19.42271793898313,-99.1722213319118,2022-10,2022,gs_00141_NSXHShp4GS6XaRKuSB-HUg
izuAIRdardnWJCplEQ0aHA,19.42324004056983,-99.17226796548609,2024-12,2024,gs_00142_izuAIRdardnWJCplEQ0aHA
4WT8GqsnBGrB3kUY8Izmpw,19.42333476821688,-99.17231671111712,2024-12,2024,gs_00143_4WT8GqsnBGrB3kUY8Izmpw
j2CxI1PYzET0ZrfAyr-Org,19.42404479640843,-99.1721217287706,2022-03,2022,gs_00144_j2CxI1PYzET0ZrfAyr-Org
S8XtdRspV4a377oNteLMFA,19.42420207956439,-99.17220468913916,2022-03,2022,gs_00145_S8XtdRspV4a377oNteLMFA
TUfhZV_bjzC5iTSssc2TFQ,19.42157645015029,-99.17209967923696,2022-03,2022,gs_00146_TUfhZV_bjzC5iTSssc2TFQ
IzV-59OaPTdTXDrwrDAqWg,19.42246551671215,-99.1718846754813,2024-12,2024,gs_00147_IzV-59OaPTdTXDrwrDAqWg
HPiiGmkg586dAAfwm0QvcA,19.42262878154265,-99.1719755768024,2024-12,2024,gs_00148_HPiiGmkg586dAAfwm0QvcA
WdgHyxRVuB5h9MhZXL40zg,19.42275769833835,-99.17213752671604,2022-10,2022,gs_00149_WdgHyxRVuB5h9MhZXL40zg
ERJlFXRMNBetO70lY71Q7g,19.42298148872563,-99.17216067451338,2024-12,2024,gs_00150_ERJlFXRMNBetO70lY71Q7g
Wfvzw3AGkTak6e6MLh1_LQ,19.42315582441069,-99.17222471115542,2024-12,2024,gs_00151_Wfvzw3AGkTak6e6MLh1_LQ
p8q1UNdReFw5m-ur3H1ksw,19.423615780949,-99.17210474809472,2022-10,2022,gs_00152_p8q1UNdReFw5m-ur3H1ksw
SFX50GsLF2iffgIAHlx7vA,19.42386219578829,-99.1720291376662,2022-03,2022,gs_00153_SFX50GsLF2iffgIAHlx7vA
cUgra8zvmYrjbGF1bIhTDA,19.42395371233238,-99.17207560216691,2022-03,2022,gs_00154_cUgra8zvmYrjbGF1bIhTDA
5qv2S8QZFoCwCjnumbexnw,19.42412029523253,-99.17216135036158,2022-03,2022,gs_00155_5qv2S8QZFoCwCjnumbexnw
PWIggp_yiICvyw5zoy2WaQ,19.42161746310674,-99.17191297653213,2022-03,2022,gs_00156_PWIggp_yiICvyw5zoy2WaQ
EL5ttmEmK8NEcpbhyNmioQ,19.42173882908671,-99.17192750722478,2024-12,2024,gs_00157_EL5ttmEmK8NEcpbhyNmioQ
CPOK_bXrkZse7OdoQHkXLg,19.42254622643634,-99.17192970372506,2024-12,2024,gs_00158_CPOK_bXrkZse7OdoQHkXLg
duKB2WkIP84wVgEGZZ0o5w,19.42286445771916,-99.17190427501392,2022-10,2022,gs_00159_duKB2WkIP84wVgEGZZ0o5w
snppcvdaEKC8jzM_B2yfqw,19.42290022672909,-99.17182469418267,2022-10,2022,gs_00160_snppcvdaEKC8jzM_B2yfqw
_e5yYVT_6wtlO7qcBTmS2Q,19.42365617407918,-99.1720190844414,2022-10,2022,gs_00161__e5yYVT_6wtlO7qcBTmS2Q
iy28TBPBkcBGbAoIX5l7bA,19.42369163523934,-99.17194381201678,2021-04,2021,gs_00162_iy28TBPBkcBGbAoIX5l7bA
xkV6-XCr0BG3vHK4HtRhrQ,19.42374356331847,-99.17196772008565,2022-03,2022,gs_00163_xkV6-XCr0BG3vHK4HtRhrQ
ab3e6PG6oC4IympsfxN4iQ,19.42177993192907,-99.17174257901274,2024-12,2024,gs_00164_ab3e6PG6oC4IympsfxN4iQ
dU_Pw_ZYstnJFiuBwssZsw,19.42293800786326,-99.1717408894011,2022-10,2022,gs_00165_dU_Pw_ZYstnJFiuBwssZsw
Cvg3HsXawryZKRQ54FMXow,19.42297559203187,-99.171657422629,2022-10,2022,gs_00166_Cvg3HsXawryZKRQ54FMXow
usbr77ze-i-ERlC4KG_W4A,19.42301175483631,-99.17157716619924,2022-10,2022,gs_00167_usbr77ze-i-ERlC4KG_W4A
EqHha3pjSZy_rUWakUFG9w,19.42371691570227,-99.17189025120992,2022-10,2022,gs_00168_EqHha3pjSZy_rUWakUFG9w
Rfx2xdyWkFJQUdFIeHjXlw,19.42375761272368,-99.17180391194036,2022-10,2022,gs_00169_Rfx2xdyWkFJQUdFIeHjXlw
DO658ZvLXiNsUsogH48xnA,19.42379821124678,-99.17171774172482,2022-10,2022,gs_00170_DO658ZvLXiNsUsogH48xnA
rrYSznu4rad_z52gq_Tb2A,19.42383628384719,-99.17163706283236,2022-10,2022,gs_00171_rrYSznu4rad_z52gq_Tb2A
l7XRV7DczWViXaU-9YRJ3g,19.42387487015608,-99.1715551168152,2022-10,2022,gs_00172_l7XRV7DczWViXaU-9YRJ3g
eyiqPLhV0GlRViLwAs_KrQ,19.42181795607324,-99.17155629954064,2024-12,2024,gs_00173_eyiqPLhV0GlRViLwAs_KrQ
3kKcV8m9EvA5J996KBqCWw,19.42304882521911,-99.17149496680226,2022-10,2022,gs_00174_3kKcV8m9EvA5J996KBqCWw
MC01uC_ujOE7EUDBL9dlYw,19.42308712424909,-99.17140981068124,2022-10,2022,gs_00175_MC01uC_ujOE7EUDBL9dlYw
f1N7QeSMBl6-zk1Ih5Ga7g,19.423917082598,-99.17146548317471,2022-10,2022,gs_00176_f1N7QeSMBl6-zk1Ih5Ga7g
lQyOv3dia1cgBshL33KqnA,19.42395485115652,-99.17138548037757,2022-10,2022,gs_00177_lQyOv3dia1cgBshL33KqnA
sNGoTiVMiN2y1mgGT4imLA,19.42484813511507,-99.1715241125192,2024-12,2024,gs_00178_sNGoTiVMiN2y1mgGT4imLA
BHtySA4ea2B0kiZp60cJGw,19.42175262349775,-99.17129812788968,2022-03,2022,gs_00179_BHtySA4ea2B0kiZp60cJGw
rC-oVZkIr5-eYmk93HsDqw,19.42217190125885,-99.17096755787512,2022-03,2022,gs_00180_rC-oVZkIr5-eYmk93HsDqw
evmuhFUNL-33RSmZj4cUtQ,19.42176873768808,-99.1711823057337,2019-02,2019,gs_00181_evmuhFUNL-33RSmZj4cUtQ
wnEGFnv3RusIYABtV6Ybug,19.42312592414664,-99.17132364088889,2022-10,2022,gs_00182_wnEGFnv3RusIYABtV6Ybug
fV3YD919JAC78A0K6lr06g,19.42316482248244,-99.17123730222892,2022-10,2022,gs_00183_fV3YD919JAC78A0K6lr06g
4rXztXispa_VFEKdpWl0_A,19.42399413949949,-99.17130209845524,2022-10,2022,gs_00184_4rXztXispa_VFEKdpWl0_A
MTr67coxFsiTLMpmcaMpZw,19.42498020611052,-99.171442673499,2021-09,2021,gs_00185_MTr67coxFsiTLMpmcaMpZw
fSyjE6nQ1VQ6KDUdanyi4w,19.42521439482406,-99.17129601588678,2022-10,2022,gs_00186_fSyjE6nQ1VQ6KDUdanyi4w
zmZu1gY_TguyKkRZIHqPeA,19.42179491564049,-99.1711074564935,2022-03,2022,gs_00187_zmZu1gY_TguyKkRZIHqPeA
R4XaL7dUdHej6nfVmUWIJg,19.4220984407868,-99.171022638703,2022-03,2022,gs_00188_R4XaL7dUdHej6nfVmUWIJg
P6w9Q9w6WWsba9xssUgKyg,19.42221705479507,-99.17088552806194,2022-03,2022,gs_00189_P6w9Q9w6WWsba9xssUgKyg
47VJCcO0RMnCKl_XHYRCcw,19.42320422168433,-99.17114994990231,2022-10,2022,gs_00190_47VJCcO0RMnCKl_XHYRCcw
DCk-6rJDcayU0_qbWV6kow,19.42324403611534,-99.17106149943254,2022-10,2022,gs_00191_DCk-6rJDcayU0_qbWV6kow
CNOCgEeSEpoiQpaOwBGp5w,19.42437044915429,-99.17121466157808,2019-02,2019,gs_00192_CNOCgEeSEpoiQpaOwBGp5w
xZVxexlrrqiSidgyE5jx2g,19.42527078479093,-99.17122648878296,2022-10,2022,gs_00193_xZVxexlrrqiSidgyE5jx2g
HGEEPHpY4BBQkoo_kIbPwg,19.42534998884675,-99.17109883954257,2022-10,2022,gs_00194_HGEEPHpY4BBQkoo_kIbPwg
z6VqUkDuAaQFr1DkOy1Jcw,19.42183744748369,-99.17091915098244,2022-03,2022,gs_00195_z6VqUkDuAaQFr1DkOy1Jcw
dYFlmTd5grtKSKLJdHc_zg,19.42195718480092,-99.1708948208275,2024-12,2024,gs_00196_dYFlmTd5grtKSKLJdHc_zg
fbixhr5ZYo4KhwKwE_D67Q,19.42226566312877,-99.17079564173062,2022-03,2022,gs_00197_fbixhr5ZYo4KhwKwE_D67Q
hc5jvQ033urd-0IcwPagDQ,19.42328405172836,-99.17097262666138,2022-10,2022,gs_00198_hc5jvQ033urd-0IcwPagDQ
0wlKh__FEUCgHpDvCoPPjQ,19.42332559138171,-99.17088029032185,2022-10,2022,gs_00199_0wlKh__FEUCgHpDvCoPPjQ
NIbBibbX-rWxo4Ptvz4yuA,19.42417685962208,-99.1709128994836,2022-10,2022,gs_00200_NIbBibbX-rWxo4Ptvz4yuA
Jh6G3pvat-hqA7Qho3CE4w,19.42421689269748,-99.17082723710251,2022-10,2022,gs_00201_Jh6G3pvat-hqA7Qho3CE4w
uXo3x5R59j6pfbN0nt4BvQ,19.42543526599258,-99.1709169545098,2022-10,2022,gs_00202_uXo3x5R59j6pfbN0nt4BvQ
APa_iag-G8FGA0Q3GxTTQA,19.42199929229475,-99.17070068673056,2024-12,2024,gs_00203_APa_iag-G8FGA0Q3GxTTQA
VuZLe3jsPhjNo7heSM1IYA,19.42231388174698,-99.17070457278707,2022-03,2022,gs_00204_VuZLe3jsPhjNo7heSM1IYA
5_HEphs9CkZk6hF4lVuoZg,19.42237633085851,-99.1705863860655,2022-03,2022,gs_00205_5_HEphs9CkZk6hF4lVuoZg
KJpWFz-hjroLNOKIVT-_3Q,19.42339869992637,-99.1707185119044,2022-03,2022,gs_00206_KJpWFz-hjroLNOKIVT-_3Q
tKn1sjD5AALMWStT8er-IA,19.42425581264832,-99.17074402471933,2022-10,2022,gs_00207_tKn1sjD5AALMWStT8er-IA
v6BsnkF1-W55oQ3tuVAbcA,19.42429705295246,-99.1706558281353,2022-10,2022,gs_00208_v6BsnkF1-W55oQ3tuVAbcA
0DFC5OawJYwG4RBttw0bRg,19.42433729570988,-99.1705695746732,2022-10,2022,gs_00209_0DFC5OawJYwG4RBttw0bRg
j8aRKfBsVL8YH3eLGaSLlQ,19.42551681837186,-99.1707429264854,2022-10,2022,gs_00210_j8aRKfBsVL8YH3eLGaSLlQ
6V-b3gyWnFmdNzZsZGLO9w,19.42204211441971,-99.17050308945278,2024-12,2024,gs_00211_6V-b3gyWnFmdNzZsZGLO9w
1qdZYotINj4VLoPB31JfGg,19.42242147553883,-99.17050097747082,2022-03,2022,gs_00212_1qdZYotINj4VLoPB31JfGg
Nqmbc6rxYYwcYhPIEwcUdg,19.42246761341923,-99.17041371042497,2022-03,2022,gs_00213_Nqmbc6rxYYwcYhPIEwcUdg
F6ge0-HBsYxOkCqTbY1_QA,19.42347948095308,-99.17055614245776,2022-10,2022,gs_00214_F6ge0-HBsYxOkCqTbY1_QA
EVeRSJne0EHsP_9QlnIX1g,19.42352412474771,-99.1704664254539,2022-10,2022,gs_00215_EVeRSJne0EHsP_9QlnIX1g
34E6GQtID2XO7RQJvEKISA,19.42357807571605,-99.17035803866116,2022-10,2022,gs_00216_34E6GQtID2XO7RQJvEKISA
Pq-NnAFhQTC5QSlOcolIXw,19.42437702043222,-99.17048467297198,2022-10,2022,gs_00217_Pq-NnAFhQTC5QSlOcolIXw
70LejlqAhArS6CSEdp_IQQ,19.42441796524125,-99.170396983548,2022-10,2022,gs_00218_70LejlqAhArS6CSEdp_IQQ
-5PZ35eR3bLAkmKfBAwGqw,19.42445799814227,-99.17031132171768,2022-10,2022,gs_00219_-5PZ35eR3bLAkmKfBAwGqw
GFCK3L2slKzipSn6yh6RdQ,19.42559736883046,-99.1705709263428,2022-10,2022,gs_00220_GFCK3L2slKzipSn6yh6RdQ
Ssr2ZHpp_17ftQHQMbgi1w,19.42197573875199,-99.17030456339178,2022-03,2022,gs_00221_Ssr2ZHpp_17ftQHQMbgi1w
tsDt_34d1jp0NrUF4SybcQ,19.42361941012948,-99.17027508020163,2022-10,2022,gs_00222_tsDt_34d1jp0NrUF4SybcQ
PhJva5t3K98HVV6QWEDmmw,19.42366016635069,-99.17018933402252,2022-10,2022,gs_00223_PhJva5t3K98HVV6QWEDmmw
DTqj5r9wPOuzO0y7eopG2Q,19.42449844199595,-99.170224646231,2022-10,2022,gs_00224_DTqj5r9wPOuzO0y7eopG2Q
FDZImF2ae8fwGufFlrQ44Q,19.42453908275621,-99.17013763292232,2022-10,2022,gs_00225_FDZImF2ae8fwGufFlrQ44Q
q7wI8sZfkor62oz0Xd0O3g,19.42567982430358,-99.17039504052715,2022-10,2022,gs_00226_q7wI8sZfkor62oz0Xd0O3g
mfwEjZnofSKDwt-jQq7Xgg,19.42201469933153,-99.17012284911712,2022-06,2022,gs_00227_mfwEjZnofSKDwt-jQq7Xgg
PskbdBCqzWt2LdIpjYY5SA,19.42223667415485,-99.17012681962456,2022-11,2022,gs_00228_PskbdBCqzWt2LdIpjYY5SA
b4oTn0XuR3ddzwDpxnTCFw,19.4226039878255,-99.1701335779355,2023-01,2023,gs_00229_b4oTn0XuR3ddzwDpxnTCFw
xwN7CkixJxCGx7LGf0CtjQ,19.42264594639802,-99.17004005985837,2023-01,2023,gs_00230_xwN7CkixJxCGx7LGf0CtjQ
yfqUgtp9OxHfPuhMHU-LMQ,19.42334675492965,-99.16975899940996,2023-01,2023,gs_00231_yfqUgtp9OxHfPuhMHU-LMQ
rXqzuDuTVPCjk2ldUrNvbA,19.42370139767688,-99.17010130700588,2022-10,2022,gs_00232_rXqzuDuTVPCjk2ldUrNvbA
HRfFN0OIE4jgN6DZv_0bnA,19.42376670657824,-99.16997458882136,2022-10,2022,gs_00233_HRfFN0OIE4jgN6DZv_0bnA
UPw4C-wRPIJsaO0S6pV6Sw,19.42457911556954,-99.1700519713689,2022-10,2022,gs_00234_UPw4C-wRPIJsaO0S6pV6Sw
o1w1dRHbP3-Fvd_xfjoy3Q,19.42510418244321,-99.16996909770457,2022-10,2022,gs_00235_o1w1dRHbP3-Fvd_xfjoy3Q
Z6vJlX-LlxJDrXd-BEhk4A,19.42525702723857,-99.17004563545882,2022-10,2022,gs_00236_Z6vJlX-LlxJDrXd-BEhk4A
nth8P4xF3RL8pqjgHdl_tw,19.42579792406118,-99.17013138148438,2022-10,2022,gs_00237_nth8P4xF3RL8pqjgHdl_tw
-sKzsGhhHtjLaelbE3OJCg,19.42217072066983,-99.16990751274334,2024-12,2024,gs_00238_-sKzsGhhHtjLaelbE3OJCg
fUs0Ah__3U1U2paOXeYghQ,19.42228700308919,-99.169885717254,2022-11,2022,gs_00239_fUs0Ah__3U1U2paOXeYghQ
iRxpfyj3u52nAQ0KrUSCbw,19.42268437305757,-99.169954144973,2023-01,2023,gs_00240_iRxpfyj3u52nAQ0KrUSCbw
VzaQpfV2xw-Eh6VAo6dGaw,19.42272228596918,-99.1698694973588,2023-01,2023,gs_00241_VzaQpfV2xw-Eh6VAo6dGaw
BCOX9GCuP0KIesS8yQjF2Q,19.42275989062118,-99.1697856101406,2023-01,2023,gs_00242_BCOX9GCuP0KIesS8yQjF2Q
PQ4bNIahQcooLay0-GSPrw,19.42326284586189,-99.1697149861256,2023-01,2023,gs_00243_PQ4bNIahQcooLay0-GSPrw
QaAUh32LyRuM8I6sOnGgdQ,19.42342873720601,-99.16980199897591,2023-01,2023,gs_00244_QaAUh32LyRuM8I6sOnGgdQ
dYtfaBSuq4M7q1218Cm04Q,19.42359393057428,-99.16988858952745,2023-01,2023,gs_00245_dYtfaBSuq4M7q1218Cm04Q
INx2FQxWqmsvwSeMSQGBXQ,19.42380512096308,-99.169894249596,2022-10,2022,gs_00246_INx2FQxWqmsvwSeMSQGBXQ
cjeO_hEVfAfyEmHrltq7Cw,19.42384372798093,-99.16981365701548,2022-10,2022,gs_00247_cjeO_hEVfAfyEmHrltq7Cw
4FjlWiJwXMve1GvyeApe3w,19.423883148374,-99.16973120598958,2022-10,2022,gs_00248_4FjlWiJwXMve1GvyeApe3w
ndBuKwN-vCG3a8iapCYmOg,19.42461773558467,-99.1699693511407,2022-10,2022,gs_00249_ndBuKwN-vCG3a8iapCYmOg
gK6R3JfIccPPGotA01w5sA,19.4248429627668,-99.16983807132117,2022-10,2022,gs_00250_gK6R3JfIccPPGotA01w5sA
PD8CAssRC5kFjaE6xvyyuQ,19.42501026275431,-99.16992212755152,2022-10,2022,gs_00251_PD8CAssRC5kFjaE6xvyyuQ
2Is6KeUV3Fg1690O9YBMAw,19.42518520984124,-99.17000964749904,2022-10,2022,gs_00252_2Is6KeUV3Fg1690O9YBMAw
eB8KzXuEogAFyrQrwbrLXw,19.42587724925394,-99.16995338466468,2022-10,2022,gs_00253_eB8KzXuEogAFyrQrwbrLXw
hL1vaieQOfVmVJXBA7oGmA,19.42221463385324,-99.1697114380308,2024-12,2024,gs_00254_hL1vaieQOfVmVJXBA7oGmA
Hi1uo_wK1w34LeOweg4C7Q,19.42233126708756,-99.16968448941108,2022-11,2022,gs_00255_Hi1uo_wK1w34LeOweg4C7Q
mfb13kXeDWp5EHet673kgQ,19.42279451933596,-99.16969834387277,2023-01,2023,gs_00256_mfb13kXeDWp5EHet673kgQ
ilqIIapDGnA1E0JjKEFfsg,19.42303187642002,-99.16959384412026,2023-01,2023,gs_00257_ilqIIapDGnA1E0JjKEFfsg
1HQK1ZMZUu-NiDMut10EPw,19.42317972462016,-99.16967139525742,2023-01,2023,gs_00258_1HQK1ZMZUu-NiDMut10EPw
lJLMw89cLKMDT1lFeEq_Qg,19.42351282179839,-99.1698460967866,2023-01,2023,gs_00259_lJLMw89cLKMDT1lFeEq_Qg
LndLy_LJiitxhGYIAotKgg,19.42392357052154,-99.16964672756733,2022-10,2022,gs_00260_LndLy_LJiitxhGYIAotKgg
Qyc152bmtXuj3rqYi7a5jw,19.42423135537476,-99.16952043249192,2022-10,2022,gs_00261_Qyc152bmtXuj3rqYi7a5jw
hU7Jwn3qnGTQ4onQmzJgHg,19.42439900703684,-99.16961175352654,2022-10,2022,gs_00262_hU7Jwn3qnGTQ4onQmzJgHg
-T3ly7iw6yLvZVoM2hI6hg,19.4245995335833,-99.16971616882392,2022-10,2022,gs_00263_-T3ly7iw6yLvZVoM2hI6hg
Ptdp2buzMbyzXAh7C0YZHA,19.42475773921508,-99.16979515621438,2022-10,2022,gs_00264_Ptdp2buzMbyzXAh7C0YZHA
ukLcE9VfVLSkwryt37llOA,19.42492643507699,-99.16988005718603,2022-10,2022,gs_00265_ukLcE9VfVLSkwryt37llOA
lOGrUEhmhCxtOj7iLWGqRw,19.42526789269019,-99.16945986161326,2024-09,2024,gs_00266_lOGrUEhmhCxtOj7iLWGqRw
R8imCs2kB_mCkeXIYiVZkA,19.4254306761902,-99.1695478879262,2024-09,2024,gs_00267_R8imCs2kB_mCkeXIYiVZkA
PjUphhfRg0Ffh_tz8IC3Pw,19.42599152546561,-99.16969775252372,2022-10,2022,gs_00268_PjUphhfRg0Ffh_tz8IC3Pw
6KZw1DuFt1d0DMIQU-2DJA,19.4221528366891,-99.16948461372412,2022-06,2022,gs_00269_6KZw1DuFt1d0DMIQU-2DJA
aWNcEencqcvPTfx7eaHBDg,19.42237962293276,-99.16946459239156,2022-11,2022,gs_00270_aWNcEencqcvPTfx7eaHBDg
kBEiHoH01-z8xy-ralc7_A,19.42287892544281,-99.1695318370558,2023-01,2023,gs_00271_kBEiHoH01-z8xy-ralc7_A
lcHIgIClnixY8qIcbRQEpQ,19.42293193649706,-99.16954146757764,2023-01,2023,gs_00272_lcHIgIClnixY8qIcbRQEpQ
-tEqGX7CigpQ-YryrgJjZA,19.42309739120483,-99.16962822680472,2023-01,2023,gs_00273_-tEqGX7CigpQ-YryrgJjZA
hpfLyERpyJhRwiz3C7PdxQ,19.42367613736224,-99.16922382992264,2023-05,2023,gs_00274_hpfLyERpyJhRwiz3C7PdxQ
FJx6MlTrxMsnopEVVRNVqQ,19.42396378715325,-99.16956275610374,2022-10,2022,gs_00275_FJx6MlTrxMsnopEVVRNVqQ
qaqLJHOpGcPym1YmfXMFRw,19.42400681643843,-99.1694729557324,2022-10,2022,gs_00276_qaqLJHOpGcPym1YmfXMFRw
_yeq49rjqF4d0qXeXQSqfA,19.42431728140802,-99.1695672334532,2022-10,2022,gs_00277__yeq49rjqF4d0qXeXQSqfA
LMS1xCkCGP9dueyyglHK6A,19.42455454967169,-99.1695391021862,2022-03,2022,gs_00278_LMS1xCkCGP9dueyyglHK6A
RTgUwhXOMlyRGCGgH5PShQ,19.42459463323356,-99.16944710540892,2022-03,2022,gs_00279_RTgUwhXOMlyRGCGgH5PShQ
A0_QpxHlbSoF_BpUzyRioA,19.42502818320252,-99.16933018771016,2024-09,2024,gs_00280_A0_QpxHlbSoF_BpUzyRioA
gu-M3-nHqkKAiX_oYW7THg,19.42518842770568,-99.16941686223063,2024-09,2024,gs_00281_gu-M3-nHqkKAiX_oYW7THg
8Rj6iGZ8TrhqIq7JzeClhQ,19.42534814978027,-99.16950319893184,2024-09,2024,gs_00282_8Rj6iGZ8TrhqIq7JzeClhQ
tb073E7HJLVjcyldl-6JBQ,19.42551408034149,-99.16959299933704,2024-09,2024,gs_00283_tb073E7HJLVjcyldl-6JBQ
8rReWCEi9WOSTNdHDnbwXA,19.42606919358293,-99.16952406505656,2022-10,2022,gs_00284_8rReWCEi9WOSTNdHDnbwXA
Lw8TwGRHyPnWSRFF-JtCSQ,19.42219447193786,-99.1692944535053,2022-06,2022,gs_00285_Lw8TwGRHyPnWSRFF-JtCSQ
wEwaQkWG5HLjid0rv-0jOg,19.42242040222851,-99.16927890955355,2022-11,2022,gs_00286_wEwaQkWG5HLjid0rv-0jOg
dYJUnWttqlXUimgU_VSW_Q,19.42295977306746,-99.16935924816272,2022-03,2022,gs_00287_dYJUnWttqlXUimgU_VSW_Q
IlNnsbnV4HvWhlov5wp6CA,19.4229989145243,-99.16927341848437,2022-03,2022,gs_00288_IlNnsbnV4HvWhlov5wp6CA
VbNx_hN4KxErr3l5FAxc3Q,19.4230382486081,-99.16918733546407,2022-03,2022,gs_00289_VbNx_hN4KxErr3l5FAxc3Q
Tg5FezqScyuzh9tajXooMw,19.42351115314823,-99.16913664874365,2023-05,2023,gs_00290_Tg5FezqScyuzh9tajXooMw
dl9isqK6wV7vF70KrGCCMA,19.4238414726266,-99.1693111801524,2023-05,2023,gs_00291_dl9isqK6wV7vF70KrGCCMA
VhQuR6y3aYU_mnM43lMOKw,19.42392220917872,-99.16935392604418,2023-05,2023,gs_00292_VhQuR6y3aYU_mnM43lMOKw
h2MYByqqD6ZfWJNSyiEsfw,19.4241118186779,-99.1692530592926,2022-10,2022,gs_00293_h2MYByqqD6ZfWJNSyiEsfw
kqw9Cxq3-IIcmlFDQ2rKwQ,19.42463593686152,-99.16935232096088,2022-03,2022,gs_00294_kqw9Cxq3-IIcmlFDQ2rKwQ
bDcpoEuAumth9V9spCrPxA,19.42486338714504,-99.16924106342272,2024-09,2024,gs_00295_bDcpoEuAumth9V9spCrPxA
rsqbAV3dJJMHwgPJUYTlbg,19.42494802025115,-99.16928676600703,2024-09,2024,gs_00296_rsqbAV3dJJMHwgPJUYTlbg
5nT_fA5txdpJo87RgX-15w,19.42510790940128,-99.16937335600252,2024-09,2024,gs_00297_5nT_fA5txdpJo87RgX-15w
MlzoA4wSehLUuqG2Y6gIUQ,19.42614746521873,-99.16934911079436,2022-10,2022,gs_00298_MlzoA4wSehLUuqG2Y6gIUQ
FgztA9UelDz7Br8DHpRZyQ,19.42618600813846,-99.16926446381848,2022-10,2022,gs_00299_FgztA9UelDz7Br8DHpRZyQ
M8vwYk0rDGgZNll6eP2-tA,19.42223492123916,-99.16910817971636,2022-06,2022,gs_00300_M8vwYk0rDGgZNll6eP2-tA
G_Vl8O7J0XV4b48yq_-14g,19.42235224480192,-99.16909601491255,2024-12,2024,gs_00301_G_Vl8O7J0XV4b48yq_-14g
8jEebbLUc9xkc4ar--5P5g,19.42246311228798,-99.16909238236732,2022-11,2022,gs_00302_8jEebbLUc9xkc4ar--5P5g
mYUql-diF8Vq773e5Ktm3Q,19.42307707750103,-99.16910235074764,2022-03,2022,gs_00303_mYUql-diF8Vq773e5Ktm3Q
dCI1k4NuEH31Z0d7ElY5Lw,19.42342778326633,-99.16909263580072,2023-05,2023,gs_00304_dCI1k4NuEH31Z0d7ElY5Lw
KQypyoPBOJtFNpwPdkLLEw,19.42359381653626,-99.16918040827709,2023-05,2023,gs_00305_KQypyoPBOJtFNpwPdkLLEw
HzGqKDeH9M2PCJWQbzqeog,19.42415437262627,-99.1691637661351,2022-10,2022,gs_00306_HzGqKDeH9M2PCJWQbzqeog
1IiWsD-UzM4u7rlpAmYRew,19.42419480741754,-99.16907903487696,2022-10,2022,gs_00307_1IiWsD-UzM4u7rlpAmYRew
ZnsYvPPVYtgSYu0U1zjvjQ,19.42445153023368,-99.16903071360132,2024-09,2024,gs_00308_ZnsYvPPVYtgSYu0U1zjvjQ
b7jb4_BaJnyWi97Y_-9ZAA,19.42461942594713,-99.16911367077428,2024-09,2024,gs_00309_b7jb4_BaJnyWi97Y_-9ZAA
UJUd5c38t-miFHwqKkEhTQ,19.42477359450716,-99.1691924886158,2024-09,2024,gs_00310_UJUd5c38t-miFHwqKkEhTQ
AESmutEJvrIFtC2g74vQ9g,19.4262301079229,-99.16916773659506,2022-10,2022,gs_00311_AESmutEJvrIFtC2g74vQ9g
taTOmpFYAdNzLFDR0TuP2g,19.422395002125,-99.16891565501668,2024-12,2024,gs_00312_taTOmpFYAdNzLFDR0TuP2g
ST21Payjz_XeQlZKB1bX8A,19.42250294446947,-99.16889875949686,2022-11,2022,gs_00313_ST21Payjz_XeQlZKB1bX8A
Um5ADjiaCuLCIXju3XnNJw,19.42288549485447,-99.1687963727228,2024-09,2024,gs_00314_Um5ADjiaCuLCIXju3XnNJw
5Jl7ezXEc-7J84f7t_20KQ,19.4230363454866,-99.1688803433843,2024-09,2024,gs_00315_5Jl7ezXEc-7J84f7t_20KQ
2go6LkKIY1UptALbQRXQEw,19.42317560521963,-99.16888777741087,2024-09,2024,gs_00316_2go6LkKIY1UptALbQRXQEw
o-cYe_q1QLAiXdYdEQQ8OA,19.42334327870349,-99.16904794705992,2023-05,2023,gs_00317_o-cYe_q1QLAiXdYdEQQ8OA
CpvKvMRU1J3b7ZcM8fiuNA,19.42423936913347,-99.16898560250662,2022-10,2022,gs_00318_CpvKvMRU1J3b7ZcM8fiuNA
zyRxMHPbad00qMXJPN5Ztw,19.42436266692212,-99.16898686967184,2024-09,2024,gs_00319_zyRxMHPbad00qMXJPN5Ztw
t24ghezkY5zKgR-pzeswog,19.42453635585249,-99.16907261456592,2024-09,2024,gs_00320_t24ghezkY5zKgR-pzeswog
qW-RIijM1FA1MJXD7rm7kA,19.42470442709543,-99.16915565626006,2024-09,2024,gs_00321_qW-RIijM1FA1MJXD7rm7kA
EL2W7vj7HgcrCUufGdR5Og,19.42555264501592,-99.16854530603788,2024-09,2024,gs_00322_EL2W7vj7HgcrCUufGdR5Og
CHTaQqS56ku_o_n2XBPviw,19.42571454724051,-99.16863121941464,2024-09,2024,gs_00323_CHTaQqS56ku_o_n2XBPviw
EC_XQNCKAfY-R6iV_0XZXA,19.42630951397685,-99.1689934589314,2022-10,2022,gs_00324_EC_XQNCKAfY-R6iV_0XZXA
EGiymRBEUFutoD6CPJ4g-g,19.4263483137882,-99.16891083979316,2022-10,2022,gs_00325_EGiymRBEUFutoD6CPJ4g-g
vANyS9bhGtmkkEGKcILbig,19.42240109226218,-99.16867987835911,2022-11,2022,gs_00326_vANyS9bhGtmkkEGKcILbig
Tr-LDcaDuP50AXOFf0ti0g,19.42254122202641,-99.16870209590782,2022-11,2022,gs_00327_Tr-LDcaDuP50AXOFf0ti0g
2541jkoq7UUAQBKjln4GVg,19.4228119470747,-99.16875548563172,2024-09,2024,gs_00328_2541jkoq7UUAQBKjln4GVg
VBRk1MWkOuLnIXG5GDDfWQ,19.42296201416498,-99.16883894938526,2024-09,2024,gs_00329_VBRk1MWkOuLnIXG5GDDfWQ
z2kEKLaD4lTjwOyV8mLDqA,19.42326291673432,-99.1687011666566,2024-09,2024,gs_00330_z2kEKLaD4lTjwOyV8mLDqA
iOCGSOMcq-NjG6DCRBh2uA,19.4233054657941,-99.16861018456758,2024-09,2024,gs_00331_iOCGSOMcq-NjG6DCRBh2uA
M-TewC6BoczMXaYHMmZcvg,19.42428405910964,-99.16888963591764,2024-09,2024,gs_00332_M-TewC6BoczMXaYHMmZcvg
YRboSBsMjlJUdF2Ms12XcQ,19.42432109867877,-99.16880803061623,2024-09,2024,gs_00333_YRboSBsMjlJUdF2Ms12XcQ
d-HlnfNKYDESMirEMVKNcQ,19.4243584464507,-99.16872566510118,2024-09,2024,gs_00334_d-HlnfNKYDESMirEMVKNcQ
fpPu0n1ce5YW5j4B6keg7A,19.42439852549579,-99.1686373017811,2024-09,2024,gs_00335_fpPu0n1ce5YW5j4B6keg7A
1DyHFRTE8fSSj0wAL90wAg,19.42444103185491,-99.16854361649354,2024-09,2024,gs_00336_1DyHFRTE8fSSj0wAL90wAg
EKUD0KNdisbj3KFS0mZd9g,19.42513674870016,-99.16833478908666,2024-09,2024,gs_00337_EKUD0KNdisbj3KFS0mZd9g
4V0hRc9gacFXXQIxJjwlnA,19.42529976400823,-99.16841647838376,2024-09,2024,gs_00338_4V0hRc9gacFXXQIxJjwlnA
5DAJbncIgWCZeQ8m_gopPA,19.42547049073345,-99.16850213819104,2024-09,2024,gs_00339_5DAJbncIgWCZeQ8m_gopPA
_K1bKXq5XXucR-vPKablQg,19.42563276547002,-99.16858779808982,2024-09,2024,gs_00340__K1bKXq5XXucR-vPKablQg
Gj8Le2SQtgmBDMgZEqPM1g,19.42579668010198,-99.1686748097177,2024-09,2024,gs_00341_Gj8Le2SQtgmBDMgZEqPM1g
DGzh1XHrzS3T1-6-c9krUQ,19.42597180006581,-99.16876781933884,2024-09,2024,gs_00342_DGzh1XHrzS3T1-6-c9krUQ
XqKwSKMYJM_eYn33CiMrsQ,19.42643224104327,-99.16873605582305,2022-10,2022,gs_00343_XqKwSKMYJM_eYn33CiMrsQ
YPY4grIaDtzfKESQEPecKA,19.42236608333938,-99.16851354261016,2022-06,2022,gs_00344_YPY4grIaDtzfKESQEPecKA
1digyCkk7UiWHfbmNgqiZQ,19.42258326006703,-99.16852705896083,2024-09,2024,gs_00345_1digyCkk7UiWHfbmNgqiZQ
38xuNiX92QZbV021zVqQlA,19.4226057795882,-99.16843742870292,2024-09,2024,gs_00346_38xuNiX92QZbV021zVqQlA
ZrLnFAC_qRbKtscs3GiMEg,19.42334709869392,-99.16852131451152,2024-09,2024,gs_00347_ZrLnFAC_qRbKtscs3GiMEg
loR1KCKw99KPawA8HqXAAw,19.42338823495653,-99.16843337380202,2024-09,2024,gs_00348_loR1KCKw99KPawA8HqXAAw
yZkwOKQh5idiP6SPKBwCtg,19.42342967086253,-99.16834484184986,2024-09,2024,gs_00349_yZkwOKQh5idiP6SPKBwCtg
SXhkaZPElx09eVQA7JNg3A,19.42447652071627,-99.16845178981198,2024-09,2024,gs_00350_SXhkaZPElx09eVQA7JNg3A
jlm5DVtbtTjaM3fhkT0_BQ,19.42451680965026,-99.16836638348953,2024-09,2024,gs_00351_jlm5DVtbtTjaM3fhkT0_BQ
Ebx3Qx58dWHzQggyfj-nWQ,19.42505554931544,-99.16829407118472,2024-09,2024,gs_00352_Ebx3Qx58dWHzQggyfj-nWQ
h0OKwMWlydF9wqWRxkyvtQ,19.42521838481631,-99.16837576044036,2024-09,2024,gs_00353_h0OKwMWlydF9wqWRxkyvtQ
HfyQ8vgcFPZw97-aiKSg3Q,19.42538385355523,-99.16845871693609,2024-09,2024,gs_00354_HfyQ8vgcFPZw97-aiKSg3Q
mGDi0W2YyUuxzMy9N5Zcqg,19.42651124489006,-99.16857149397974,2022-10,2022,gs_00355_mGDi0W2YyUuxzMy9N5Zcqg
v5OGPe3c7bHcUixtnZQWlw,19.42240831670376,-99.16831865398196,2022-06,2022,gs_00356_v5OGPe3c7bHcUixtnZQWlw
mMjNEH8xaxG0Dpn01eavvw,19.422567409432,-99.16827176927208,2024-12,2024,gs_00357_mMjNEH8xaxG0Dpn01eavvw
846dWkJhJJDR8SMmLwtBuw,19.42264593714328,-99.16825335330344,2024-09,2024,gs_00358_846dWkJhJJDR8SMmLwtBuw
9riAZt9ei8wBNNI7x3l3Tw,19.42346999795677,-99.168258675349,2024-09,2024,gs_00359_9riAZt9ei8wBNNI7x3l3Tw
s0VkhtNPGISUuGGe2qM9Pw,19.42351062469525,-99.16817191760292,2024-09,2024,gs_00360_s0VkhtNPGISUuGGe2qM9Pw
lxuudvaZauB0M0IgW1XBsw,19.42455449566377,-99.16828621482844,2024-09,2024,gs_00361_lxuudvaZauB0M0IgW1XBsw
LMfugc8T9xX-hMFIF3lsQQ,19.42485474307153,-99.16819337471932,2024-09,2024,gs_00362_LMfugc8T9xX-hMFIF3lsQQ
EXM3x73AX8lma-SBL2CbUQ,19.42660451331301,-99.16837736550411,2022-10,2022,gs_00363_EXM3x73AX8lma-SBL2CbUQ
j4pgDY_2vIyX4KYkh-aSRQ,19.42235536441374,-99.1681088979163,2024-09,2024,gs_00364_j4pgDY_2vIyX4KYkh-aSRQ
9RyeCbdqKtFvxg43TsQrgw,19.42261481206462,-99.16809909861291,2024-12,2024,gs_00365_9RyeCbdqKtFvxg43TsQrgw
Xf0dhnD0kH8VJRoCAJYCMQ,19.42267392157636,-99.16806463210705,2024-09,2024,gs_00366_Xf0dhnD0kH8VJRoCAJYCMQ
Se53O6A8PMXipScSydyAuQ,19.4235504380222,-99.16808701843884,2024-09,2024,gs_00367_Se53O6A8PMXipScSydyAuQ
ePqHOgHudcEyFHhs0sj-JA,19.4235900672169,-99.16800220384124,2024-09,2024,gs_00368_ePqHOgHudcEyFHhs0sj-JA
2pkjz9Yjwd7QkEkIztiv3w,19.42416437944631,-99.16782928033288,2024-09,2024,gs_00369_2pkjz9Yjwd7QkEkIztiv3w
ye_EJEiVdcaGbdqAeJ5t_g,19.42432131530752,-99.16791384131798,2024-09,2024,gs_00370_ye_EJEiVdcaGbdqAeJ5t_g
NuqEyx8X2zL2LtEtEgkV-g,19.42440420629457,-99.16795844495044,2024-09,2024,gs_00371_NuqEyx8X2zL2LtEtEgkV-g
jqVkJ0HeRB-L3WHKZB1qIw,19.42463467952652,-99.1681160784411,2024-09,2024,gs_00372_jqVkJ0HeRB-L3WHKZB1qIw
WAwoXTEpfz9cw0i286UX1A,19.42477091036679,-99.1681513897371,2024-09,2024,gs_00373_WAwoXTEpfz9cw0i286UX1A
qz71eTcUcAc-79dix3juFA,19.42494093930491,-99.16823662687688,2024-09,2024,gs_00374_qz71eTcUcAc-79dix3juFA
TUj75xNZ34jKgZak9FJwEQ,19.42597142465807,-99.16781077998937,2024-09,2024,gs_00375_TUj75xNZ34jKgZak9FJwEQ
ArnW7dQ58QGX6_tJ_ainTA,19.42605672202017,-99.16785403194066,2024-09,2024,gs_00376_ArnW7dQ58QGX6_tJ_ainTA
r2ZEcDZIoGBzTu_VoonNMg,19.42669658287236,-99.16818560284972,2022-10,2022,gs_00377_r2ZEcDZIoGBzTu_VoonNMg
QWbdFYgoahg1CaGvdHhwsQ,19.42249633536304,-99.16791198283384,2022-06,2022,gs_00378_QWbdFYgoahg1CaGvdHhwsQ
TxhwS156GlHU1MhfA5Yugg,19.42269761897293,-99.1679233026925,2024-12,2024,gs_00379_TxhwS156GlHU1MhfA5Yugg
8GT3-zDi7TKxnhatk0lgEg,19.42272084355713,-99.16781796048748,2024-12,2024,gs_00380_8GT3-zDi7TKxnhatk0lgEg
yNVVuYGu7UzZ3oZjeuPXEw,19.42363109200633,-99.16791468608352,2024-09,2024,gs_00381_yNVVuYGu7UzZ3oZjeuPXEw
t4Zqy5nWb0MIfNFy_nkO5Q,19.4236703144534,-99.16783080090924,2024-09,2024,gs_00382_t4Zqy5nWb0MIfNFy_nkO5Q
cBQgwboewTuNwtUlI-U8wg,19.42405059534826,-99.16776795044338,2024-09,2024,gs_00383_cBQgwboewTuNwtUlI-U8wg
azN-JdbJ-okuYFlN8z9SBA,19.42423912651616,-99.16786957561636,2024-09,2024,gs_00384_azN-JdbJ-okuYFlN8z9SBA
sk74tRLUnQyhWPM1cI6AeA,19.42451519002726,-99.1680182544056,2024-09,2024,gs_00385_sk74tRLUnQyhWPM1cI6AeA
ikC_9dYUqs6dYvwfqwHSyA,19.42475544316313,-99.16786011424816,2024-09,2024,gs_00386_ikC_9dYUqs6dYvwfqwHSyA
A2Z8Gqw1Zr-QcrE0rZ8K6Q,19.42479099281077,-99.16778484572504,2024-09,2024,gs_00387_A2Z8Gqw1Zr-QcrE0rZ8K6Q
uO7OfMJyGjLjWptYrn8hpw,19.42555233713107,-99.16760643173012,2024-09,2024,gs_00388_uO7OfMJyGjLjWptYrn8hpw
TkiwHhOeLCbikInbzmW0hw,19.42571679188289,-99.1676898942882,2024-09,2024,gs_00389_TkiwHhOeLCbikInbzmW0hw
PRgfkYKuojl2qTo-_ps0wQ,19.42580226055415,-99.16773331512704,2024-09,2024,gs_00390_PRgfkYKuojl2qTo-_ps0wQ
5drXYGEn7kFM7duhF-mzZQ,19.42253841883962,-99.16772537434932,2022-06,2022,gs_00391_5drXYGEn7kFM7duhF-mzZQ
doLrO8ofwvGeX50I7FBdMA,19.42275212773283,-99.16767595569706,2024-12,2024,gs_00392_doLrO8ofwvGeX50I7FBdMA
jCZmcbWEoCK3rMPKbuO10A,19.42331631322898,-99.16739220029837,2022-11,2022,gs_00393_jCZmcbWEoCK3rMPKbuO10A
ueEmz2MmTrxQuVGO_q69rw,19.42348279720813,-99.16747464892048,2022-11,2022,gs_00394_ueEmz2MmTrxQuVGO_q69rw
3mXfamQeLVDdMTcxDXs7ww,19.42370398871606,-99.16775882699274,2021-04,2021,gs_00395_3mXfamQeLVDdMTcxDXs7ww
1CNwzJiMeRiDYbjQiQL_6A,19.42372778244294,-99.16770797222216,2024-09,2024,gs_00396_1CNwzJiMeRiDYbjQiQL_6A
WkAI4aKBtLlVz6jNwfMjjg,19.424007619088,-99.16774480391324,2024-09,2024,gs_00397_WkAI4aKBtLlVz6jNwfMjjg
zGX02wazf-u7rfoyfszagA,19.42480479055359,-99.16775561689,2024-09,2024,gs_00398_zGX02wazf-u7rfoyfszagA
H-Di7ototNfceIxr7EZQcQ,19.42484407321321,-99.16767232321612,2024-09,2024,gs_00399_H-Di7ototNfceIxr7EZQcQ
YJ54zwTYjVBp5CB-UJvFDw,19.42530457582531,-99.16747946405778,2024-09,2024,gs_00400_YJ54zwTYjVBp5CB-UJvFDw
Su-EaOE4IbuinsPDJVfp7g,19.42547063639681,-99.1675649539122,2024-09,2024,gs_00401_Su-EaOE4IbuinsPDJVfp7g
bfDr6ZL5OTv7DE4aGnkWSw,19.42563438895981,-99.16764807852203,2024-09,2024,gs_00402_bfDr6ZL5OTv7DE4aGnkWSw
t5IedfU6DRhsOadQd-DeSQ,19.42616191609351,-99.16776178366644,2022-11,2022,gs_00403_t5IedfU6DRhsOadQd-DeSQ
3O3j7zHqdoPGTUrcdJD0Qg,19.42259294936878,-99.16748824957222,2022-06,2022,gs_00404_3O3j7zHqdoPGTUrcdJD0Qg
71jQUU6QgF1vZvPDhArTfA,19.42279321346816,-99.1674895167138,2024-12,2024,gs_00405_71jQUU6QgF1vZvPDhArTfA
dLI8VcLKYbJERxzJLqtXXQ,19.42323359788132,-99.16735122944696,2022-11,2022,gs_00406_dLI8VcLKYbJERxzJLqtXXQ
_ohAtJ0tTCTaAkjMZ1ypew,19.42339920839424,-99.16743317117069,2022-11,2022,gs_00407__ohAtJ0tTCTaAkjMZ1ypew
8pzqvhdhG3giWdFaVaMhFg,19.42357156694944,-99.16751857649965,2022-11,2022,gs_00408_8pzqvhdhG3giWdFaVaMhFg
e615cS8fVCwy3vnxAwRenw,19.42380951061325,-99.16753217715882,2024-09,2024,gs_00409_e615cS8fVCwy3vnxAwRenw
RO2dVOGj9eOQA5NuxLMimg,19.42385605760253,-99.16743148164976,2024-09,2024,gs_00410_RO2dVOGj9eOQA5NuxLMimg
m8F9FqqnfMWF87RqiZS0EA,19.42488401505664,-99.16758666429487,2024-09,2024,gs_00411_m8F9FqqnfMWF87RqiZS0EA
TNANd8xbpFYpC5Q5TluvEQ,19.42492490720345,-99.16749821775322,2024-09,2024,gs_00412_TNANd8xbpFYpC5Q5TluvEQ
EUrQ7nCAiaizNFHOL8dyNg,19.42522273798662,-99.16743714154498,2024-09,2024,gs_00413_EUrQ7nCAiaizNFHOL8dyNg
Ma4aQIzEG_veqD-GZBQntg,19.42539087528515,-99.167524236401,2024-09,2024,gs_00414_Ma4aQIzEG_veqD-GZBQntg
_GAeCnhP_y-S7XWzHLut3A,19.42638035955314,-99.16740394246376,2023-05,2023,gs_00415__GAeCnhP_y-S7XWzHLut3A
Bl3csFw3ETSC9N84oTrpbA,19.42656730241305,-99.16749610585036,2023-05,2023,gs_00416_Bl3csFw3ETSC9N84oTrpbA
ZwOdu78UufH2NckOmJGUUg,19.42253541460537,-99.16727841120192,2024-09,2024,gs_00417_ZwOdu78UufH2NckOmJGUUg
smZItJM5LZev28dzJWDEvw,19.42283514645971,-99.16729876989255,2024-12,2024,gs_00418_smZItJM5LZev28dzJWDEvw
zd6IsSCfJF9-AqRvyarrZQ,19.42304364548875,-99.16725813699232,2023-05,2023,gs_00419_zd6IsSCfJF9-AqRvyarrZQ
YMthjdEhPN7-oy49AjewmQ,19.42313885075228,-99.16730459873024,2023-05,2023,gs_00420_YMthjdEhPN7-oy49AjewmQ
kN1CuqIK1Kt3XQ-vXR_khw,19.42389746737821,-99.16734168366398,2024-09,2024,gs_00421_kN1CuqIK1Kt3XQ-vXR_khw
EkzyM2NGwFWBsnzILbEWpg,19.4239389713115,-99.16725180130288,2024-09,2024,gs_00422_EkzyM2NGwFWBsnzILbEWpg
V0gwQXpDjBCoXogBijq0cQ,19.42397886556477,-99.16716529807302,2024-09,2024,gs_00423_V0gwQXpDjBCoXogBijq0cQ
FYN207ZhEZRM51luz2M7fg,19.42401906373473,-99.16707811913102,2024-09,2024,gs_00424_FYN207ZhEZRM51luz2M7fg
eK6KJcJkJ1el5U-Ac82aQw,19.42496406101544,-99.16741036264123,2024-09,2024,gs_00425_eK6KJcJkJ1el5U-Ac82aQw
RonfIQ8MlbVqTzAxMQKwsw,19.42500325327794,-99.16732174734211,2024-09,2024,gs_00426_RonfIQ8MlbVqTzAxMQKwsw
mT3SRWbv_SaoHvc8Iaue2g,19.42513768447494,-99.16739262267838,2024-09,2024,gs_00427_mT3SRWbv_SaoHvc8Iaue2g
TO-LGBZjau8VhCmSyAt_Ug,19.42590186003767,-99.1671547386031,2024-09,2024,gs_00428_TO-LGBZjau8VhCmSyAt_Ug
qrsz7j2aIzT0edfgHjkUow,19.42598721339826,-99.16719866600708,2024-09,2024,gs_00429_qrsz7j2aIzT0edfgHjkUow
DYsN-F2N63D_oYGVg446Rg,19.42621924826627,-99.167318368305,2024-09,2024,gs_00430_DYsN-F2N63D_oYGVg446Rg
_HqOcLnovVuymEWXILsvhA,19.42257579691655,-99.16708276529316,2024-09,2024,gs_00431__HqOcLnovVuymEWXILsvhA
iaa0zqcTuXBj8rBaYbbmLA,19.42276353534124,-99.16716985976444,2022-06,2022,gs_00432_iaa0zqcTuXBj8rBaYbbmLA
_USnFoBU6HaZuZM_8o6luw,19.42292823441586,-99.1672005244747,2023-05,2023,gs_00433__USnFoBU6HaZuZM_8o6luw
a-130-6capZwmRth9MO0zA,19.42405935178868,-99.1669909402838,2024-09,2024,gs_00434_a-130-6capZwmRth9MO0zA
UuVENSgI2put5RgAxXhsQg,19.42502410606091,-99.1672774819672,2024-09,2024,gs_00435_UuVENSgI2put5RgAxXhsQg
iBr5v96wrYahcCT9JBBkkQ,19.42506103833328,-99.16719976419247,2024-09,2024,gs_00436_iBr5v96wrYahcCT9JBBkkQ
1YNeTsEos03_GQhBnqEz-g,19.42510040217296,-99.1671166400472,2024-09,2024,gs_00437_1YNeTsEos03_GQhBnqEz-g
pKFxSwilJOCjcPcW8c-P-w,19.42549185198375,-99.16694329607012,2024-09,2024,gs_00438_pKFxSwilJOCjcPcW8c-P-w
hqG14YALyPuW8RL5_ZGYog,19.42564625372798,-99.16702287205987,2024-09,2024,gs_00439_hqG14YALyPuW8RL5_ZGYog
YMBm3fPzleLmkUbfPs5Z5w,19.42581730306813,-99.16711106465029,2024-09,2024,gs_00440_YMBm3fPzleLmkUbfPs5Z5w
KYEhN_sOML5ok7E3sY4U_w,19.42637729582011,-99.16711275416446,2024-09,2024,gs_00441_KYEhN_sOML5ok7E3sY4U_w
u23zhQRFuzqqXdyvaaW24w,19.42650904626283,-99.16698257720168,2024-09,2024,gs_00442_u23zhQRFuzqqXdyvaaW24w
sMFL1cJpChdd5b2IRGny7Q,19.42720918378285,-99.16712525657044,2024-09,2024,gs_00443_sMFL1cJpChdd5b2IRGny7Q
shuxrypXVEBgvdGqddeTCA,19.42272844317679,-99.16688788014086,2022-06,2022,gs_00444_shuxrypXVEBgvdGqddeTCA
6viCihzcfQlo0o3gTfQbVw,19.42296755285097,-99.166864227012,2021-04,2021,gs_00445_6viCihzcfQlo0o3gTfQbVw
GsGnhMq0bMxEFqhh8TVCJQ,19.42304682295579,-99.16680982484203,2024-09,2024,gs_00446_GsGnhMq0bMxEFqhh8TVCJQ
OchyMcoFVI-3DP2viEVbCg,19.4230946298966,-99.16673219199572,2024-09,2024,gs_00447_OchyMcoFVI-3DP2viEVbCg
LW8y87U746n54kTJdNua3A,19.42409672019412,-99.16690992824228,2024-09,2024,gs_00448_LW8y87U746n54kTJdNua3A
4nP2a6UMHkqEH6GeMjK4-Q,19.42413651158921,-99.16682367880728,2024-09,2024,gs_00449_4nP2a6UMHkqEH6GeMjK4-Q
zWRtTj4hkk7R6dqa8MzBAw,19.42476053608292,-99.16655504746883,2024-09,2024,gs_00450_zWRtTj4hkk7R6dqa8MzBAw
_oKV-DYs0G4PG3IQ3Q-b8Q,19.42492228589615,-99.16664222584234,2024-09,2024,gs_00451__oKV-DYs0G4PG3IQ3Q-b8Q
Ei3a468j3FAZOQVOb4tUBQ,19.4251404595217,-99.16703224885369,2024-09,2024,gs_00452_Ei3a468j3FAZOQVOb4tUBQ
-dJ5_VP3atA13UF1uS0_1A,19.42518061958399,-99.16694760432232,2024-09,2024,gs_00453_-dJ5_VP3atA13UF1uS0_1A
xKi2vnXWGeRCdthZ3rHbxg,19.4254118507918,-99.16690198754604,2024-09,2024,gs_00454_xKi2vnXWGeRCdthZ3rHbxg
xRQkX0E1TeY1l7i7_e-NYg,19.42596047135673,-99.16684412185792,2023-01,2023,gs_00455_xRQkX0E1TeY1l7i7_e-NYg
MgKXy4h38s3thFbBBYjOZg,19.42644114338242,-99.16704331516128,2024-09,2024,gs_00456_MgKXy4h38s3thFbBBYjOZg
lZEdTSgcAw9k3bZTYoBteQ,19.42658027208203,-99.1669272457208,2024-09,2024,gs_00457_lZEdTSgcAw9k3bZTYoBteQ
nO4nd_LjVbl2QmkTvl1MaQ,19.4267946654893,-99.16683592774196,2024-09,2024,gs_00458_nO4nd_LjVbl2QmkTvl1MaQ
5HQNVjU_XiT1C72sUStKfA,19.42696726754097,-99.16677088169646,2024-09,2024,gs_00459_5HQNVjU_XiT1C72sUStKfA
NPdPt0usByGSV8apxjqsbA,19.42727793392941,-99.1669891662966,2024-09,2024,gs_00460_NPdPt0usByGSV8apxjqsbA
FginnykypbMPAivhd3r21g,19.42277328621968,-99.1666875890451,2022-06,2022,gs_00461_FginnykypbMPAivhd3r21g
FOcdPByitrpQ2HxYdsadTA,19.42294677300095,-99.16673827421818,2024-12,2024,gs_00462_FOcdPByitrpQ2HxYdsadTA
hXqoQJ7qFOr9POydgwzmXA,19.42313273022684,-99.16665270076956,2024-09,2024,gs_00463_hXqoQJ7qFOr9POydgwzmXA
FGgfAH33WG_A2qehTaxAwg,19.42316791494144,-99.16657574387646,2024-09,2024,gs_00464_FGgfAH33WG_A2qehTaxAwg
0fQNInNhT6vZxnFsJXHLYw,19.42320821150022,-99.16649371855355,2024-09,2024,gs_00465_0fQNInNhT6vZxnFsJXHLYw
7GnmIJK2Gr6UWSXS8BcZ2A,19.42418548985879,-99.16671757776864,2024-09,2024,gs_00466_7GnmIJK2Gr6UWSXS8BcZ2A
1r76Vq4s3HJXQQXR8SIx6A,19.42423446380829,-99.1666115613455,2024-09,2024,gs_00467_1r76Vq4s3HJXQQXR8SIx6A
ooc2v3d8jC9-LpCHZ9nUeQ,19.42467835091692,-99.16651069804196,2024-09,2024,gs_00468_ooc2v3d8jC9-LpCHZ9nUeQ
KYmamNMy7aA9vqDhaLa01w,19.42484158654975,-99.16659872111892,2024-09,2024,gs_00469_KYmamNMy7aA9vqDhaLa01w
Qw5mrHfOoyIbCd3xhyw0ew,19.42500324642209,-99.16668589953989,2024-09,2024,gs_00470_Qw5mrHfOoyIbCd3xhyw0ew
r4KEfTFQvIYF-nIRLMbXzA,19.4260006486498,-99.16675913962374,2023-01,2023,gs_00471_r4KEfTFQvIYF-nIRLMbXzA
QQlyGjIFIZcJYTUkHOgVhQ,19.42619721435712,-99.16656881691496,2023-01,2023,gs_00472_QQlyGjIFIZcJYTUkHOgVhQ
OVMCMZfhhzuP-iDlaTPdAQ,19.42639297001998,-99.16666630128196,2023-01,2023,gs_00473_OVMCMZfhhzuP-iDlaTPdAQ
1sqzoMNzQIacRJMe-q9SlA,19.42654601913594,-99.16674596147224,2023-01,2023,gs_00474_1sqzoMNzQIacRJMe-q9SlA
gFdXebA-Pa7TiJFeQAvdMQ,19.42701383965642,-99.1667158882628,2022-07,2022,gs_00475_gFdXebA-Pa7TiJFeQAvdMQ
YgoLvnQyDPRbUrzkDT3lAA,19.42706560175831,-99.16660809786312,2024-09,2024,gs_00476_YgoLvnQyDPRbUrzkDT3lAA
KN3RaPvdVOvmNPgewWOA-g,19.42740461025616,-99.16672121020632,2024-09,2024,gs_00477_KN3RaPvdVOvmNPgewWOA-g
tjbJ_jPF80ewfn7upBNfEA,19.42281945126829,-99.16647716144398,2022-06,2022,gs_00478_tjbJ_jPF80ewfn7upBNfEA
svpHrstVGyIi59zk938-oQ,19.42298534749846,-99.1665357026682,2024-12,2024,gs_00479_svpHrstVGyIi59zk938-oQ
DwFK79ARq1MC1TbHznINdw,19.42324726591451,-99.16640603349168,2024-09,2024,gs_00480_DwFK79ARq1MC1TbHznINdw
p10evNu0GA3GegYmdYzvgg,19.42328495034961,-99.16632054487238,2024-09,2024,gs_00481_p10evNu0GA3GegYmdYzvgg
26El2JCJ7Ed0UNLPhvJT7w,19.42394510291621,-99.16612329628124,2024-09,2024,gs_00482_26El2JCJ7Ed0UNLPhvJT7w
tm6zA8-d-M-_EscSyeiaQg,19.42427779115022,-99.16651762499843,2024-09,2024,gs_00483_tm6zA8-d-M-_EscSyeiaQg
vNxJi9TWODSMUFKNcZUu6Q,19.42459633701571,-99.16646651758964,2024-09,2024,gs_00484_vNxJi9TWODSMUFKNcZUu6Q
iCLG_DJ1FXoObO8WxuKoGw,19.42538627835636,-99.16651365466964,2024-09,2024,gs_00485_iCLG_DJ1FXoObO8WxuKoGw
FLVqloB7LcMFeEl9porI4Q,19.42543127989042,-99.16641684628796,2024-09,2024,gs_00486_FLVqloB7LcMFeEl9porI4Q
g4_zycSQ7WfyCEnAASkA6g,19.42604051768981,-99.16667491775682,2023-01,2023,gs_00487_g4_zycSQ7WfyCEnAASkA6g
CkNvKDI6wsoNcA4JBUF-ag,19.42610690976561,-99.16656586028522,2023-01,2023,gs_00488_CkNvKDI6wsoNcA4JBUF-ag
3hqEkaPS7x5f7mow-zsp_w,19.42630679004553,-99.16662271207026,2023-01,2023,gs_00489_3hqEkaPS7x5f7mow-zsp_w
ME3-01hnR3izBwIFLcVYMA,19.4267092377084,-99.16634757683704,2024-09,2024,gs_00490_ME3-01hnR3izBwIFLcVYMA
3XMQ88PbPTiyRxB5dcoWnw,19.42679487395218,-99.1663894764002,2024-09,2024,gs_00491_3XMQ88PbPTiyRxB5dcoWnw
A22LwQQik23LhDqNzbUoRg,19.42695168708277,-99.16647116371637,2022-06,2022,gs_00492_A22LwQQik23LhDqNzbUoRg
7QVOs8-5PPQDKsLY29O1iQ,19.42710368528568,-99.16652007477587,2024-09,2024,gs_00493_7QVOs8-5PPQDKsLY29O1iQ
nMTdW8cnWjGScN-vWFbnpw,19.42748680614654,-99.16654507940504,2024-09,2024,gs_00494_nMTdW8cnWjGScN-vWFbnpw
U2GfmuqkmDU5A-hssTictg,19.42274042221841,-99.16633135765716,2024-09,2024,gs_00495_U2GfmuqkmDU5A-hssTictg
7xgTeCor3Ot-_pj3tpq3mQ,19.42302377699058,-99.16634309966724,2024-12,2024,gs_00496_7xgTeCor3Ot-_pj3tpq3mQ
LGeCjUQUA7cCZ0iJMO6rqQ,19.42332476662347,-99.16623024128158,2024-09,2024,gs_00497_LGeCjUQUA7cCZ0iJMO6rqQ
x_WmfIjgWv7ZvTuwGwdr7g,19.42386327314262,-99.16608080553472,2024-09,2024,gs_00498_x_WmfIjgWv7ZvTuwGwdr7g
mtZMqiDuMRxFFNGA0lJ2Vw,19.42402648738062,-99.16616570257553,2024-09,2024,gs_00499_mtZMqiDuMRxFFNGA0lJ2Vw
r8aD_0V5EGqn4uHJc120Ig,19.42438287090931,-99.1662908097218,2024-09,2024,gs_00500_r8aD_0V5EGqn4uHJc120Ig
7hwwx3ZundN-yWpsXYtDQg,19.42547063479244,-99.16633211793112,2024-09,2024,gs_00501_7hwwx3ZundN-yWpsXYtDQg
TMLCNkP0waGNh7IR_1dwag,19.42551088867959,-99.16624561569304,2024-09,2024,gs_00502_TMLCNkP0waGNh7IR_1dwag
R1O8IDRS3PetEoNBwcvXeQ,19.42555479416743,-99.16615091950226,2024-09,2024,gs_00503_R1O8IDRS3PetEoNBwcvXeQ
YafObMGavuI4j5EOOEtVXg,19.42628091484353,-99.16613554510896,2024-09,2024,gs_00504_YafObMGavuI4j5EOOEtVXg
RIhVYIW1O7_K8KKdhLBcuw,19.42644637289287,-99.16621875271233,2024-09,2024,gs_00505_RIhVYIW1O7_K8KKdhLBcuw
vp63iEJYYFsKZX2o-XDatw,19.42661632236645,-99.16630204487684,2024-09,2024,gs_00506_vp63iEJYYFsKZX2o-XDatw
HdIOecHwAW9WfkfAJqcOkw,19.42718195449372,-99.16634335309196,2024-09,2024,gs_00507_HdIOecHwAW9WfkfAJqcOkw
UD0N_Lum4q-zMEzmYs67SQ,19.42760534776842,-99.1662903873476,2024-09,2024,gs_00508_UD0N_Lum4q-zMEzmYs67SQ
vU6A-9k7EExBmMapEbuXxA,19.4227825210311,-99.1661426409824,2024-09,2024,gs_00509_vU6A-9k7EExBmMapEbuXxA
Os3KR_5LZdXCmktH373Ing,19.42290307484252,-99.16609330777987,2022-06,2022,gs_00510_Os3KR_5LZdXCmktH373Ing
KDsUMKRE7ScowLZH6qvCTQ,19.42312016631369,-99.16609254750816,2022-10,2022,gs_00511_KDsUMKRE7ScowLZH6qvCTQ
KKJjKGLZJ9VQSPlMvUxfZQ,19.42336631659985,-99.16613588300768,2024-09,2024,gs_00512_KKJjKGLZJ9VQSPlMvUxfZQ
16oeVh8Z7wf_ZGqz3Uy8RQ,19.42361210175667,-99.1659501233998,2024-09,2024,gs_00513_16oeVh8Z7wf_ZGqz3Uy8RQ
YyU4GaIwncQ297OV-4mhMQ,19.42378127207793,-99.16603814586158,2024-09,2024,gs_00514_YyU4GaIwncQ297OV-4mhMQ
ILJ14KRThe0TPF2317ud4g,19.42444306481964,-99.16615852222532,2024-09,2024,gs_00515_ILJ14KRThe0TPF2317ud4g
BRP5KWQw5KnETAPtd7N49Q,19.42448227785507,-99.16607125990294,2024-09,2024,gs_00516_BRP5KWQw5KnETAPtd7N49Q
BT4FP6IjuAihxuieSpetCA,19.42556143823177,-99.16613689670385,2024-09,2024,gs_00517_BT4FP6IjuAihxuieSpetCA
jTJQ-w58cgDvPYrWUI86zA,19.42560694063288,-99.16604084904812,2024-09,2024,gs_00518_jTJQ-w58cgDvPYrWUI86zA
-XgfTjBTkz_g0xDdavVnvQ,19.42600769615526,-99.1659981049217,2024-09,2024,gs_00519_-XgfTjBTkz_g0xDdavVnvQ
H4pO3y66IomcCOdmkHYzjg,19.42619744076506,-99.16609356120378,2024-09,2024,gs_00520_H4pO3y66IomcCOdmkHYzjg
4zv4E-zm9TCLXVGbRFcQyw,19.4263624578134,-99.16617659981414,2024-09,2024,gs_00521_4zv4E-zm9TCLXVGbRFcQyw
HgnUdbTbqf1jdQpoot77FQ,19.42653674485945,-99.16626301750296,2024-09,2024,gs_00522_HgnUdbTbqf1jdQpoot77FQ
Uz5Z6_KZJL79DDlLBCZr_A,19.42688453505781,-99.1659610206091,2024-09,2024,gs_00523_Uz5Z6_KZJL79DDlLBCZr_A
mSTgeH4MsEDtKut4j27iYA,19.42704770273254,-99.16604507277728,2024-09,2024,gs_00524_mSTgeH4MsEDtKut4j27iYA
31v_PgLmalVbVJ5vMBRApw,19.42723023279029,-99.1661391775203,2024-09,2024,gs_00525_31v_PgLmalVbVJ5vMBRApw
W_6m-TV7kkISQ1mSrcNkqA,19.42730050376745,-99.1660831708242,2024-09,2024,gs_00526_W_6m-TV7kkISQ1mSrcNkqA
-JZYItuFJyXSGTPXWh6Z5w,19.42765124446591,-99.16619011577106,2024-09,2024,gs_00527_-JZYItuFJyXSGTPXWh6Z5w
VsEHu942rp3szsTKj2aEjA,19.42294319535512,-99.16590459166522,2022-06,2022,gs_00528_VsEHu942rp3szsTKj2aEjA
7F70Pl5BjSgVglhm-Xoeaw,19.42316921321897,-99.16589268077048,2022-10,2022,gs_00529_7F70Pl5BjSgVglhm-Xoeaw
1Xjwwe9Ab9rIbSG_v2t1Ug,19.42344424089273,-99.16595882427224,2024-09,2024,gs_00530_1Xjwwe9Ab9rIbSG_v2t1Ug
n4DO7KQ2B6eOge2kHrQaKw,19.42452066908349,-99.165987799029,2024-09,2024,gs_00531_n4DO7KQ2B6eOge2kHrQaKw
BWXC8ZyRChC0LRtD0lgjXA,19.42456111107887,-99.1659029021765,2024-09,2024,gs_00532_BWXC8ZyRChC0LRtD0lgjXA
_iLmCcNSnLzjiLhdcGJlxg,19.42460205391811,-99.16581699172173,2024-09,2024,gs_00533__iLmCcNSnLzjiLhdcGJlxg
AtvqeA3FDujUykDQDA9zew,19.424641789507,-99.16573361558665,2024-09,2024,gs_00534_AtvqeA3FDujUykDQDA9zew
PEwM9ycNBEo-1lgyH9cAZQ,19.42564561056423,-99.1659589932212,2024-09,2024,gs_00535_PEwM9ycNBEo-1lgyH9cAZQ
NwY2sC5hZpiPqEfHP0l81A,19.4258312807988,-99.16590932223386,2024-09,2024,gs_00536_NwY2sC5hZpiPqEfHP0l81A
xUUBNPrc-1QyonBsXw3pdg,19.42592825979121,-99.1659580640018,2024-09,2024,gs_00537_xUUBNPrc-1QyonBsXw3pdg
HgHxsL3hfxsy_r3a3SjQiw,19.42611335437266,-99.16605123942222,2024-09,2024,gs_00538_HgHxsL3hfxsy_r3a3SjQiw
daWdqHefcypimG8AX5peZg,19.42663766611392,-99.16583414001558,2024-09,2024,gs_00539_daWdqHefcypimG8AX5peZg
egK7GqmsaLGQ6f5MwnHyKw,19.42680241812602,-99.1659188678464,2024-09,2024,gs_00540_egK7GqmsaLGQ6f5MwnHyKw
3opUibisuPCa7MhawFE7LQ,19.42696603112373,-99.16600300444492,2024-09,2024,gs_00541_3opUibisuPCa7MhawFE7LQ
pwLWEKVVuAVanKl0K_71ng,19.42713506916282,-99.16609009774378,2024-09,2024,gs_00542_pwLWEKVVuAVanKl0K_71ng
kp8Ctz5rbomIU0x6XTDVpQ,19.42738591028807,-99.16590754827058,2024-09,2024,gs_00543_kp8Ctz5rbomIU0x6XTDVpQ
RD8UV_QawkkO50C7Qu5dOQ,19.42773160320263,-99.16601474640694,2024-09,2024,gs_00544_RD8UV_QawkkO50C7Qu5dOQ
IzA7O5QzhAUwpVZ8EJkYsg,19.42776566284333,-99.16594049330908,2024-09,2024,gs_00545_IzA7O5QzhAUwpVZ8EJkYsg
0dAlfFmN08qBgvutvb9Ghw,19.42297447017449,-99.16572009970665,2022-06,2022,gs_00546_0dAlfFmN08qBgvutvb9Ghw
3bBmDPnHb4lVnuEk_XmbOQ,19.42321680507606,-99.16570379617944,2022-07,2022,gs_00547_3bBmDPnHb4lVnuEk_XmbOQ
-CFF9tZ6AIWluVM3AtboKw,19.42356588665653,-99.16569957246826,2024-09,2024,gs_00548_-CFF9tZ6AIWluVM3AtboKw
10yDCvmn8Ad9UY9lWXRwyQ,19.42467961149841,-99.16565429429846,2024-09,2024,gs_00549_10yDCvmn8Ad9UY9lWXRwyQ
DbnGq12N3KWz4jQItLE73w,19.42472266475219,-99.16556399145776,2024-09,2024,gs_00550_DbnGq12N3KWz4jQItLE73w
oNoi0JpF8i8nz245fo_hHw,19.42568719580841,-99.16587105532068,2024-09,2024,gs_00551_oNoi0JpF8i8nz245fo_hHw
psQDvh83r_pJZJaqjDuOaQ,19.42570917861856,-99.16582577705408,2024-09,2024,gs_00552_psQDvh83r_pJZJaqjDuOaQ
Dscwyc1HfiUfj3mrGYF37Q,19.42575388504746,-99.1657365721857,2024-09,2024,gs_00553_Dscwyc1HfiUfj3mrGYF37Q
-2BZPriCG7-2CiOKXHS0Rw,19.42610183667259,-99.16554861717697,2024-09,2024,gs_00554_-2BZPriCG7-2CiOKXHS0Rw
PyH4tntxWqvKFPg1vd4fSw,19.42626681611598,-99.16563773736216,2024-09,2024,gs_00555_PyH4tntxWqvKFPg1vd4fSw
e2H37JdUYNDTfFlx4loa1g,19.42634751172482,-99.16568132603854,2024-09,2024,gs_00556_e2H37JdUYNDTfFlx4loa1g
NeipWeh3kFxFV7LNPOVS0Q,19.42651640813661,-99.16570548566396,2024-09,2024,gs_00557_NeipWeh3kFxFV7LNPOVS0Q
EYN0gdYoTZJCdnm-MTG6fQ,19.42672004426356,-99.1658764616826,2024-09,2024,gs_00558_EYN0gdYoTZJCdnm-MTG6fQ
Yi89aPj_TuxWbIjPuY5hiA,19.42711154359353,-99.1654889785112,2024-09,2024,gs_00559_Yi89aPj_TuxWbIjPuY5hiA
eywHzo7J3a6eHzkg0aVn3w,19.4272771141786,-99.16557885889696,2024-09,2024,gs_00560_eywHzo7J3a6eHzkg0aVn3w
OSZiDXk687OIPUuoGlpfqw,19.42744933441893,-99.16567237177362,2024-09,2024,gs_00561_OSZiDXk687OIPUuoGlpfqw
ZA-czfiHeQWvCAp8JUIh3w,19.42749148457703,-99.1656905337271,2024-09,2024,gs_00562_ZA-czfiHeQWvCAp8JUIh3w
K499v7A3kUi3PpSD-NYaqg,19.42784438621911,-99.16577078426836,2024-09,2024,gs_00563_K499v7A3kUi3PpSD-NYaqg
syXyxai97eNLKivsCXzbZw,19.42299746961316,-99.16554988428793,2024-10,2024,gs_00564_syXyxai97eNLKivsCXzbZw
44VakWs4ZqkkDEXfuf4iGQ,19.42315232620754,-99.16548010874176,2024-12,2024,gs_00565_44VakWs4ZqkkDEXfuf4iGQ
mJV28y0oG--kt985oEp8XQ,19.42326988632428,-99.16547039423348,2024-09,2024,gs_00566_mJV28y0oG--kt985oEp8XQ
-G0QsPUFVKCN5yexorqA_w,19.42365180904622,-99.16552614707956,2024-09,2024,gs_00567_-G0QsPUFVKCN5yexorqA_w
H42t_QZ120Utv1kXTdLjIQ,19.42369387289251,-99.16543584438315,2024-09,2024,gs_00568_H42t_QZ120Utv1kXTdLjIQ
lIQ6K06363sGGdFwkuwseg,19.42373885626622,-99.16533937519772,2024-09,2024,gs_00569_lIQ6K06363sGGdFwkuwseg
vTlbk3vETw9ywwZ2zEFWyw,19.42476682672912,-99.16547132344724,2024-09,2024,gs_00570_vTlbk3vETw9ywwZ2zEFWyw
GiztF4c_WteUwgoDp_tLCw,19.42480807336606,-99.16538473766364,2024-09,2024,gs_00571_GiztF4c_WteUwgoDp_tLCw
7d5rWB0RsfXKKycrqadOZg,19.4253253766289,-99.16514973164696,2024-09,2024,gs_00572_7d5rWB0RsfXKKycrqadOZg
NZ7TEirKGTtUrqbah82ReA,19.42549047144245,-99.16523302270132,2024-09,2024,gs_00573_NZ7TEirKGTtUrqbah82ReA
yrooORdJzoeZkKa4wE8TAg,19.42565915867528,-99.1653181722662,2024-09,2024,gs_00574_yrooORdJzoeZkKa4wE8TAg
pYxMSNC9tYEs-A9ED010xg,19.42584219760228,-99.16556035907249,2024-09,2024,gs_00575_pYxMSNC9tYEs-A9ED010xg
qPLr9hulzi1ZILudS2aYyA,19.42602174905298,-99.16550545094276,2024-09,2024,gs_00576_qPLr9hulzi1ZILudS2aYyA
K_-wEBTazCD2zkIRtY0Zsw,19.4261834058073,-99.16559271264956,2024-09,2024,gs_00577_K_-wEBTazCD2zkIRtY0Zsw
gdsoJ7FCjsZGQKbp9WDpEg,19.42659810653371,-99.16553738212748,2024-09,2024,gs_00578_gdsoJ7FCjsZGQKbp9WDpEg
IVqcJqRzw44u5JLxKSlG0Q,19.42663894714146,-99.16545349943928,2024-09,2024,gs_00579_IVqcJqRzw44u5JLxKSlG0Q
DJfY2gYG_qbnPFL_v8_UwA,19.42702946050017,-99.16544437625188,2024-09,2024,gs_00580_DJfY2gYG_qbnPFL_v8_UwA
CpTj8ZdqtCD6pnvEZ581-g,19.42719380650325,-99.16553358079528,2024-09,2024,gs_00581_CpTj8ZdqtCD6pnvEZ581-g
I8FLJvijZRCN6yIg61pQrw,19.42736156080937,-99.16562472834318,2024-09,2024,gs_00582_I8FLJvijZRCN6yIg61pQrw
7R6TgKm8zx1H4dhnLNhGlw,19.42757385549439,-99.16551981152692,2024-09,2024,gs_00583_7R6TgKm8zx1H4dhnLNhGlw
7HPAw9KRUINXPmKXK2g8Yg,19.42793234845388,-99.165589080263,2024-09,2024,gs_00584_7HPAw9KRUINXPmKXK2g8Yg
RaVMpoyq5wrN8tuecazcXw,19.42799093856896,-99.16546895817582,2024-09,2024,gs_00585_RaVMpoyq5wrN8tuecazcXw
cdLUEFxbFGpJg-HvwceXhg,19.42319412781452,-99.1652794832662,2024-12,2024,gs_00586_cdLUEFxbFGpJg-HvwceXhg
dRmYyBsA_q-tuWc1wEeiNw,19.42331591044638,-99.1652787230022,2024-09,2024,gs_00587_dRmYyBsA_q-tuWc1wEeiNw
QblrBRBvueo61roh7LOdpw,19.42378473859769,-99.1652411321798,2024-09,2024,gs_00588_QblrBRBvueo61roh7LOdpw
EsE7-reHbUP7P1Ixv0esmw,19.42382579206165,-99.16515302611906,2024-09,2024,gs_00589_EsE7-reHbUP7P1Ixv0esmw
043TQwOJbHsvlzG0I6sWZQ,19.42484982939308,-99.16529696934032,2024-09,2024,gs_00590_043TQwOJbHsvlzG0I6sWZQ
bCchzq6zK6w6T2OhUf9xDA,19.4248919792463,-99.1652085253234,2024-09,2024,gs_00591_bCchzq6zK6w6T2OhUf9xDA
8GUrQFbu9fQFmplDpSO3tw,19.4254071768638,-99.16519103926858,2024-09,2024,gs_00592_8GUrQFbu9fQFmplDpSO3tw
nq20x3t2TeSDRllHTLyNpw,19.42557446395478,-99.16527542852492,2024-09,2024,gs_00593_nq20x3t2TeSDRllHTLyNpw
ZvWYVkbfANgQXzXJrXglSQ,19.42574122006021,-99.16535964892232,2024-09,2024,gs_00594_ZvWYVkbfANgQXzXJrXglSQ
AH_5XgyN1vgVr3XFFsLKaQ,19.42596822504211,-99.16530338934916,2024-09,2024,gs_00595_AH_5XgyN1vgVr3XFFsLKaQ
7HufBOFiuds132VT2wVptw,19.42600792227872,-99.16522077401144,2024-09,2024,gs_00596_7HufBOFiuds132VT2wVptw
rxeyrrZAUwKRRCog74iU8w,19.42668331095483,-99.16536218313828,2024-09,2024,gs_00597_rxeyrrZAUwKRRCog74iU8w
jlL6xu19rUOu9VesmjT-Lg,19.42675870608955,-99.1652973072355,2024-09,2024,gs_00598_jlL6xu19rUOu9VesmjT-Lg
w_MjIqbfD-hX5eR4GIfH1w,19.42694921430887,-99.16540078770429,2024-09,2024,gs_00599_w_MjIqbfD-hX5eR4GIfH1w
5ki_AcQpHSclinRuVVWfBA,19.42761593779099,-99.1654327188473,2024-09,2024,gs_00600_5ki_AcQpHSclinRuVVWfBA
oNgX5WzG0ECdH9m2zvk-3g,19.42763582733372,-99.16539149557508,2024-09,2024,gs_00601_oNgX5WzG0ECdH9m2zvk-3g
qR0IH52SkyN9reCV2tyM0w,19.42767832482608,-99.16530330487537,2024-09,2024,gs_00602_qR0IH52SkyN9reCV2tyM0w
VyDZ8UHVw89jt2ueVGzM5A,19.42802682187426,-99.16539242478795,2024-09,2024,gs_00603_VyDZ8UHVw89jt2ueVGzM5A
jIXO5B5ofpqxYoEQQFAV2w,19.42324176478754,-99.1650754793499,2024-12,2024,gs_00604_jIXO5B5ofpqxYoEQQFAV2w
HLyZsEetsokYmcv75QR_Hw,19.42336327485389,-99.16509076906642,2024-09,2024,gs_00605_HLyZsEetsokYmcv75QR_Hw
S4hs8NEvrvXAh59dyZO-ng,19.42386694395826,-99.16506475120798,2024-09,2024,gs_00606_S4hs8NEvrvXAh59dyZO-ng
7QCVS3gs_-pDXvw-7MKwHw,19.42390930302968,-99.16497394219034,2024-09,2024,gs_00607_7QCVS3gs_-pDXvw-7MKwHw
-xnNijKzVfzT5OM17dRXkw,19.42455151420971,-99.16474746917196,2024-09,2024,gs_00608_-xnNijKzVfzT5OM17dRXkw
klELbo7TrJTQXJhurDRbwA,19.42471411757943,-99.16483380084767,2024-09,2024,gs_00609_klELbo7TrJTQXJhurDRbwA
yIagEoxz4EvICCpqE5T8vg,19.42493644503625,-99.16511518193477,2024-09,2024,gs_00610_yIagEoxz4EvICCpqE5T8vg
xGAfSHSSBGqTr-cFh-URvw,19.42521516638672,-99.16509414800969,2024-09,2024,gs_00611_xGAfSHSSBGqTr-cFh-URvw
JcthN26J3JOIkzp6IopyAQ,19.4260480176223,-99.16513739849614,2024-09,2024,gs_00612_JcthN26J3JOIkzp6IopyAQ
iQcolPWkS8N6fkP_jhxj1w,19.42608851107213,-99.16505326280566,2024-09,2024,gs_00613_iQcolPWkS8N6fkP_jhxj1w
m4SHkvJATtpaQ0G3rfmrhg,19.42612981785937,-99.16496726878752,2024-09,2024,gs_00614_m4SHkvJATtpaQ0G3rfmrhg
AAfdeC6ii5tvvJWTlcOY5g,19.426777290912,-99.16516459900932,2024-09,2024,gs_00615_AAfdeC6ii5tvvJWTlcOY5g
JFNe0ST5JtCDhs4ay93zbw,19.42681671840661,-99.1650802098696,2024-09,2024,gs_00616_JFNe0ST5JtCDhs4ay93zbw
KYsmCOzIGRcQs7u01XjsIw,19.42685775978652,-99.16499235740608,2024-09,2024,gs_00617_KYsmCOzIGRcQs7u01XjsIw
0nGNDosl4b0pE_3VF3HxXA,19.42771880167365,-99.16521950690569,2024-09,2024,gs_00618_0nGNDosl4b0pE_3VF3HxXA
YthZNqaeVwXhnANlM0Na1Q,19.42775858923505,-99.16513689165436,2024-09,2024,gs_00619_YthZNqaeVwXhnANlM0Na1Q
diN7z4C8AtYyk_vHZEAGcw,19.42813093984353,-99.16517042769192,2024-09,2024,gs_00620_diN7z4C8AtYyk_vHZEAGcw
xLpV2HKlAFTwHOSBTR0A2w,19.42311817722067,-99.16490399819848,2021-05,2021,gs_00621_xLpV2HKlAFTwHOSBTR0A2w
LX7QnLA0uPZsY4G_xhILrQ,19.42341787738317,-99.1648805990747,2024-09,2024,gs_00622_LX7QnLA0uPZsY4G_xhILrQ
8t1v01_FpwIDyglV1v7oFQ,19.42394975279818,-99.1648871035236,2024-09,2024,gs_00623_8t1v01_FpwIDyglV1v7oFQ
oAxuTsVPyhF7BtuLxOPGUg,19.42398999278767,-99.1648008562638,2024-09,2024,gs_00624_oAxuTsVPyhF7BtuLxOPGUg
EWKnipHBIbT8NW48Jx6ujg,19.42446999626741,-99.16470413442264,2024-09,2024,gs_00625_EWKnipHBIbT8NW48Jx6ujg
uXx0EEZ6inE5fFW8dRbKvQ,19.42463233419266,-99.16479038157844,2024-09,2024,gs_00626_uXx0EEZ6inE5fFW8dRbKvQ
_MrSjBk-9devTjYVmVqtlQ,19.42479888111685,-99.16487874066084,2024-09,2024,gs_00627__MrSjBk-9devTjYVmVqtlQ
e7pqK2sQLG_jfVdyfsEU0Q,19.42502138681462,-99.16493804097917,2024-09,2024,gs_00628_e7pqK2sQLG_jfVdyfsEU0Q
5gPNsgXI254qAUvPBsiHEA,19.42506333121852,-99.16485187813792,2024-09,2024,gs_00629_5gPNsgXI254qAUvPBsiHEA
tus7bM5Y_4cAAPC8LMLipA,19.42617192088327,-99.16487975434111,2024-09,2024,gs_00630_tus7bM5Y_4cAAPC8LMLipA
-vkW30chOGCQJYyT8ZtGnA,19.42621301358528,-99.16479443629515,2024-09,2024,gs_00631_-vkW30chOGCQJYyT8ZtGnA
FHJvmm5zgB0L0EPkmKJ2IQ,19.42689950321487,-99.16490306899124,2024-09,2024,gs_00632_FHJvmm5zgB0L0EPkmKJ2IQ
erknwp-gqsSaC6ndkECafg,19.42694184167566,-99.16481268252312,2024-09,2024,gs_00633_erknwp-gqsSaC6ndkECafg
QiZcRiCP30MPsCnl-yft7A,19.42749926534514,-99.16465733629856,2024-09,2024,gs_00634_QiZcRiCP30MPsCnl-yft7A
suVRI9-sZPCd4SlxKlYVVQ,19.42766383001565,-99.16474045789516,2024-09,2024,gs_00635_suVRI9-sZPCd4SlxKlYVVQ
rEIpzDsy0-l1JezbDAS5pg,19.42783614366822,-99.1649760540268,2024-09,2024,gs_00636_rEIpzDsy0-l1JezbDAS5pg
LyNjyULVFo7xDMPbDw0Z_Q,19.4280401411066,-99.16493204336663,2021-03,2021,gs_00637_LyNjyULVFo7xDMPbDw0Z_Q
q-qpODoWM-A2vc3hJq6tsw,19.42823433402006,-99.16494851568385,2024-09,2024,gs_00638_q-qpODoWM-A2vc3hJq6tsw
lX_RQoFsEry5OdB1Rne4Ew,19.42317250313448,-99.16466907806358,2024-10,2024,gs_00639_lX_RQoFsEry5OdB1Rne4Ew
L01neNSO8yVdMO91ZI5xNg,19.42336225564397,-99.16470041760311,2024-12,2024,gs_00640_L01neNSO8yVdMO91ZI5xNg
Lf42N9DOeSqXNocV2l-9TA,19.42347177081922,-99.16469154792088,2024-09,2024,gs_00641_Lf42N9DOeSqXNocV2l-9TA
kPd9-pBTVzP1aiM_qSRFbQ,19.42403174388867,-99.16471139911582,2024-09,2024,gs_00642_kPd9-pBTVzP1aiM_qSRFbQ
kNkTNsuzPGNMIIVZ-KvDUA,19.42422569501104,-99.16457446820723,2024-09,2024,gs_00643_kNkTNsuzPGNMIIVZ-KvDUA
eygvihjQKH9GfK2gA6AD1w,19.42438891078911,-99.16466113758922,2024-09,2024,gs_00644_eygvihjQKH9GfK2gA6AD1w
qWz8OLF_EmcTXpjO309PkQ,19.42510557953426,-99.16476503960332,2024-09,2024,gs_00645_qWz8OLF_EmcTXpjO309PkQ
-5NFXiJeF4mPAoFHw6Xn0Q,19.42514802474859,-99.1646778632702,2024-09,2024,gs_00646_-5NFXiJeF4mPAoFHw6Xn0Q
KVdEQymzrCGizMK3rebTNA,19.42519017454281,-99.16459119387017,2024-09,2024,gs_00647_KVdEQymzrCGizMK3rebTNA
qvC6KV7LjguZpDoP9Oy1DQ,19.42523181489275,-99.16450570718524,2024-09,2024,gs_00648_qvC6KV7LjguZpDoP9Oy1DQ
Px7O2_lgTYAGhx6Dd0i7hg,19.42625462422888,-99.16470776676914,2024-09,2024,gs_00649_Px7O2_lgTYAGhx6Dd0i7hg
L8vY2O97OLjJSr1SyEFdGw,19.42629672716503,-99.16462025260591,2024-09,2024,gs_00650_L8vY2O97OLjJSr1SyEFdGw
3Xl4psvFpiNur3rBpFi1dw,19.42633792679494,-99.16453459694408,2024-09,2024,gs_00651_3Xl4psvFpiNur3rBpFi1dw
aAFe4VLXdjBt9udZ7KzjZg,19.42698449687252,-99.16472136695172,2024-09,2024,gs_00652_aAFe4VLXdjBt9udZ7KzjZg
YKtoWGP6soDxATdrC5JkOQ,19.4270285561912,-99.16462717939916,2024-09,2024,gs_00653_YKtoWGP6soDxATdrC5JkOQ
qN_Y_P7FTH68IRgtUNMQvQ,19.42741518675118,-99.1646148463287,2024-09,2024,gs_00654_qN_Y_P7FTH68IRgtUNMQvQ
6aqn2C6jPzdIg7s6zRGWsQ,19.42758010255626,-99.16469813682758,2024-09,2024,gs_00655_6aqn2C6jPzdIg7s6zRGWsQ
9NRUB9Rfj6R2DIdpmxxAGg,19.427750893024,-99.16478438397692,2024-09,2024,gs_00656_9NRUB9Rfj6R2DIdpmxxAGg
w878eIfMEz8ZhmVSaPsqow,19.42798304997436,-99.16467254146224,2024-09,2024,gs_00657_w878eIfMEz8ZhmVSaPsqow
uNqLdNPs4x_uj7Josyf6Eg,19.42831367731134,-99.16477542981217,2024-09,2024,gs_00658_uNqLdNPs4x_uj7Josyf6Eg
StsqQ-idVr_b-MbYyuV6CQ,19.42321834631866,-99.16447563481576,2024-10,2024,gs_00659_StsqQ-idVr_b-MbYyuV6CQ
1fTRCNlc0PScZb5juFGt6g,19.42342247408136,-99.1645249670233,2024-12,2024,gs_00660_1fTRCNlc0PScZb5juFGt6g
rc5U44QZzRvhcNDvWJ6jFw,19.42352376352804,-99.16450807242826,2024-09,2024,gs_00661_rc5U44QZzRvhcNDvWJ6jFw
NOBy46zvccjC87eiFrV-Vg,19.42388381474305,-99.16439724397311,2024-09,2024,gs_00662_NOBy46zvccjC87eiFrV-Vg
kgx1JWhvpnH7tGeuoiaHgA,19.42396961449046,-99.1644412543398,2024-09,2024,gs_00663_kgx1JWhvpnH7tGeuoiaHgA
uU3CHoV2d9_17SoMDgOPCQ,19.42414522607558,-99.16453172486231,2024-09,2024,gs_00664_uU3CHoV2d9_17SoMDgOPCQ
xYhIUeSTtItDXHcCExq7aA,19.42430826632361,-99.164618309725,2024-09,2024,gs_00665_xYhIUeSTtItDXHcCExq7aA
_0h9KygEsNGa80YwIZ1DPw,19.42527305708611,-99.16442098084734,2024-09,2024,gs_00666__0h9KygEsNGa80YwIZ1DPw
sZiNA1n3OdL7FAw_q3SE9w,19.42531499704523,-99.1643349030344,2024-09,2024,gs_00667_sZiNA1n3OdL7FAw_q3SE9w
2qPd0yzVTGNlDjeioh-mng,19.42544203250625,-99.16407396702957,2024-09,2024,gs_00668_2qPd0yzVTGNlDjeioh-mng
n3d8Hz2znYM7Y5bwq9fwwA,19.42637993975735,-99.16444708296982,2024-09,2024,gs_00669_n3d8Hz2znYM7Y5bwq9fwwA
hPudjcOaeat0mptNMp1cKQ,19.42688550709028,-99.16434098507506,2019-01,2019,gs_00670_hPudjcOaeat0mptNMp1cKQ
hjbatbTkCS8_ZKvMeERY3A,19.42707090737774,-99.16453653982296,2024-09,2024,gs_00671_hjbatbTkCS8_ZKvMeERY3A
ZmmnehQKAi8XYG5AqOOfBA,19.42717092800935,-99.16449143125564,2024-09,2024,gs_00672_ZmmnehQKAi8XYG5AqOOfBA
lv_rAFwHBJvQ2b5GdJJawA,19.42733531721309,-99.16457446820723,2024-09,2024,gs_00673_lv_rAFwHBJvQ2b5GdJJawA
jUgaILP2GykJ24faFuPucA,19.42802643754172,-99.16458097263128,2024-09,2024,gs_00674_jUgaILP2GykJ24faFuPucA
3PhsA9xP_39ByM1Hc3w_tA,19.4280686263945,-99.16449176914745,2024-09,2024,gs_00675_3PhsA9xP_39ByM1Hc3w_tA
fjIBxYLSghsRf45zNTCNWw,19.42842572712408,-99.16453349879517,2024-09,2024,gs_00676_fjIBxYLSghsRf45zNTCNWw
xIZ4sqPWvBBP7yE5m31zMQ,19.42315945255607,-99.16433878878254,2024-09,2024,gs_00677_xIZ4sqPWvBBP7yE5m31zMQ
PEQ52riy2ncHIjQ0XeehQQ,19.42349279322135,-99.16435424730425,2024-12,2024,gs_00678_PEQ52riy2ncHIjQ0XeehQQ
P46MZk9112EyDOsgW30FgQ,19.4235769795474,-99.16431285564084,2024-09,2024,gs_00679_P46MZk9112EyDOsgW30FgQ
O7rG09lfQF1tMusDwS0DCQ,19.423800905237,-99.16435475414104,2024-09,2024,gs_00680_O7rG09lfQF1tMusDwS0DCQ
VAv_SDjuUFazkCpc9TBo6A,19.42421686023959,-99.16431547429646,2024-09,2024,gs_00681_VAv_SDjuUFazkCpc9TBo6A
VFVvytxBWIxBUoR2s4yCzg,19.42425808893687,-99.1642274537253,2024-09,2024,gs_00682_VFVvytxBWIxBUoR2s4yCzg
jQb1ipJJEuXKwj-m_Ay9GQ,19.42429890665657,-99.16414044692168,2024-09,2024,gs_00683_jQb1ipJJEuXKwj-m_Ay9GQ
ip5jZp_31smHotWs8v4Ceg,19.42535824692078,-99.164246037715,2024-09,2024,gs_00684_ip5jZp_31smHotWs8v4Ceg
wdAxRNX_DbHc2dz6AKzI5w,19.42539989570621,-99.16416038245282,2024-09,2024,gs_00685_wdAxRNX_DbHc2dz6AKzI5w
IIgDmqGzEju-704YHFmlNg,19.42617611959364,-99.16395807083094,2019-01,2019,gs_00686_IIgDmqGzEju-704YHFmlNg
n8V7S5G1-tviVZko5nAAWQ,19.42642153746108,-99.1643606672376,2024-09,2024,gs_00687_n8V7S5G1-tviVZko5nAAWQ
9R-3kXnoTD39mfUJ5MrDCA,19.42662477943824,-99.16420185851015,2019-01,2019,gs_00688_9R-3kXnoTD39mfUJ5MrDCA
OkQZi7hGZI9bCOZ4XU6IcQ,19.42679664534807,-99.16429351138098,2019-01,2019,gs_00689_OkQZi7hGZI9bCOZ4XU6IcQ
7jOForyRynAymiXkPnSYPA,19.42697323411469,-99.16438778301452,2019-01,2019,gs_00690_7jOForyRynAymiXkPnSYPA
zCLEwj4qkc1sNeYTenvAPA,19.42710710257633,-99.16445916259572,2019-01,2019,gs_00691_zCLEwj4qkc1sNeYTenvAPA
dXUmN-JSRVtgnZqQS2R4Xg,19.42725474116593,-99.16453383668711,2024-09,2024,gs_00692_dXUmN-JSRVtgnZqQS2R4Xg
Vmsrv4CDTySBpYwqcWny8A,19.42789829421455,-99.16404997684056,2024-09,2024,gs_00693_Vmsrv4CDTySBpYwqcWny8A
ranEoUzTUrlXouLRNlF-Vw,19.42811101642123,-99.16440214339852,2024-09,2024,gs_00694_ranEoUzTUrlXouLRNlF-Vw
tJsvUWI332Io6KHOKe6Lmw,19.42815260159669,-99.164314207205,2024-09,2024,gs_00695_tJsvUWI332Io6KHOKe6Lmw
9rr5D3tVNnV1VRZdn3Ylmg,19.42837592404694,-99.16428810512578,2021-03,2021,gs_00696_9rr5D3tVNnV1VRZdn3Ylmg
S8R21VYzrZGkevkSev6L2w,19.42329406724044,-99.16410395477584,2024-10,2024,gs_00697_S8R21VYzrZGkevkSev6L2w
Sarvx2ZUhfSyx83CggDqtg,19.42362514305341,-99.16411797721882,2022-08,2022,gs_00698_Sarvx2ZUhfSyx83CggDqtg
P6039Hzw1a1B2PS5s7ZbDQ,19.4243385342457,-99.1640556364972,2024-09,2024,gs_00699_P6039Hzw1a1B2PS5s7ZbDQ
tvfq6ygV8r0Te-gSNQeZ3g,19.42437924916994,-99.1639688832972,2024-09,2024,gs_00700_tvfq6ygV8r0Te-gSNQeZ3g
_DtB1WJSbWWGGOvgzJjWNA,19.42441956594016,-99.16388289044184,2024-09,2024,gs_00701__DtB1WJSbWWGGOvgzJjWNA
txzfrpc3wCbHV7AigdrbRQ,19.42594136093071,-99.16382992632236,2019-01,2019,gs_00702_txzfrpc3wCbHV7AigdrbRQ
V6iJmcbeiLnW7-docHsKxg,19.42609815931261,-99.16391549675924,2019-01,2019,gs_00703_V6iJmcbeiLnW7-docHsKxg
35kIBf1yhrpFHUEPe_vjSQ,19.42625241421477,-99.16399980020094,2019-01,2019,gs_00704_35kIBf1yhrpFHUEPe_vjSQ
ZhvRhOYwOlQS0e0ToQoeWA,19.42643169666448,-99.1640977038081,2019-01,2019,gs_00705_ZhvRhOYwOlQS0e0ToQoeWA
ifwMn-G1Vis_Z9LwuUHI3A,19.42653275121998,-99.1641281139261,2024-09,2024,gs_00706_ifwMn-G1Vis_Z9LwuUHI3A
mcjKxLeqFRnG30imBcvIag,19.42671084086158,-99.16424781164152,2019-01,2019,gs_00707_mcjKxLeqFRnG30imBcvIag
8wnwhjC_PykrnwNHXjG2Pg,19.42706244693814,-99.16443542571018,2019-01,2019,gs_00708_8wnwhjC_PykrnwNHXjG2Pg
3oCI5fO_28o1OHM-xL8ZsA,19.42749253049112,-99.16384158349398,2021-03,2021,gs_00709_3oCI5fO_28o1OHM-xL8ZsA
9oHSUMJtSOdAyKLM4c-h1g,19.42764439610695,-99.1639215787681,2024-09,2024,gs_00710_9oHSUMJtSOdAyKLM4c-h1g
TDClFEe8d5BlAZ2VX3zNvw,19.42781552985231,-99.16400816297204,2024-09,2024,gs_00711_TDClFEe8d5BlAZ2VX3zNvw
CimlDj-8EAVjaXCGB53dTQ,19.42798089155822,-99.16409153731335,2024-09,2024,gs_00712_CimlDj-8EAVjaXCGB53dTQ
OsyuOuPiE73cggbRe65-wQ,19.42824416467236,-99.16409508515956,2024-09,2024,gs_00713_OsyuOuPiE73cggbRe65-wQ
KXQMKqmlmMrmNbyG7xS5ag,19.42861266325096,-99.16413014126772,2024-09,2024,gs_00714_KXQMKqmlmMrmNbyG7xS5ag
_bDRhC-heEj_oTjZLhWSpw,19.42332094537982,-99.16389970043282,2024-10,2024,gs_00715__bDRhC-heEj_oTjZLhWSpw
fqTXW15OT8IER2NsZkyRZw,19.42364512162965,-99.16393813535012,2024-12,2024,gs_00716_fqTXW15OT8IER2NsZkyRZw
UpfFGxn7VIggv4L9fR4bWQ,19.42367321755811,-99.16388931033748,2022-08,2022,gs_00717_UpfFGxn7VIggv4L9fR4bWQ
RbmmEIVCpZC5CWlHjit0cw,19.42371463402789,-99.16375314108213,2024-12,2024,gs_00718_RbmmEIVCpZC5CWlHjit0cw
0kug-0ga0X1RM1mcuoECPw,19.42445988268125,-99.16379689767868,2024-09,2024,gs_00719_0kug-0ga0X1RM1mcuoECPw
MQvED9o-SXQ5MBoOm4Q8sw,19.42450030640332,-99.1637105671192,2024-09,2024,gs_00720_MQvED9o-SXQ5MBoOm4Q8sw
3hoBmiZa5i7UHhdZqkoHMg,19.42548166922766,-99.16399253557222,2024-09,2024,gs_00721_3hoBmiZa5i7UHhdZqkoHMg
ah0yNbXEiWLVgjT3IXIkkw,19.42553897310977,-99.16387469662838,2024-09,2024,gs_00722_ah0yNbXEiWLVgjT3IXIkkw
HrQDROgcDDdXmPU3fVmjPg,19.42584808858139,-99.16377898957064,2019-01,2019,gs_00723_HrQDROgcDDdXmPU3fVmjPg
uF3549bfOS-cQkSS3BfKTg,19.42634533537274,-99.16405056814796,2019-01,2019,gs_00724_uF3549bfOS-cQkSS3BfKTg
FeA_IVzhbvsigK_r24_irg,19.42661174158146,-99.16395308696026,2024-09,2024,gs_00725_FeA_IVzhbvsigK_r24_irg
1bQn99ITpkVBfooO1DP9aQ,19.42665346703466,-99.16386058975569,2024-09,2024,gs_00726_1bQn99ITpkVBfooO1DP9aQ
lNu0znRrLA3knwAQZADhuA,19.4270846642317,-99.16363386646528,2021-03,2021,gs_00727_lNu0znRrLA3knwAQZADhuA
3SWwjkPE5KGLuMr_FFz4-g,19.42725470190159,-99.16371901433229,2023-01,2023,gs_00728_3SWwjkPE5KGLuMr_FFz4-g
b0QLDadRO_M0YIgaUPLxQQ,19.42742968518537,-99.16380771012318,2023-01,2023,gs_00729_b0QLDadRO_M0YIgaUPLxQQ
faYhPmv04lBAULyCrp1t3w,19.42759940492974,-99.1638813699403,2024-09,2024,gs_00730_faYhPmv04lBAULyCrp1t3w
hYU6amQjmo7bkkjL8rgFKg,19.4277358355812,-99.16396786962844,2024-09,2024,gs_00731_hYU6amQjmo7bkkjL8rgFKg
0RNckj3shiSaflCQyZG44g,19.42827916706973,-99.16388491777724,2024-09,2024,gs_00732_0RNckj3shiSaflCQyZG44g
oJkcSV2KrLZV6Y0J7yPAnw,19.42862262965719,-99.16390654269146,2024-09,2024,gs_00733_oJkcSV2KrLZV6Y0J7yPAnw
Ql4UOVJi8KgS2RWKQXo7DA,19.42333628017076,-99.16369789630129,2024-10,2024,gs_00734_Ql4UOVJi8KgS2RWKQXo7DA
zi-i8eD3AZC9YsR45qvIMA,19.42362258327347,-99.1636247434849,2024-09,2024,gs_00735_zi-i8eD3AZC9YsR45qvIMA
RAhE2r8ZcG_MIo53JSaBDg,19.42375951481224,-99.16366757081848,2024-12,2024,gs_00736_RAhE2r8ZcG_MIo53JSaBDg
QaQXf-bV6vJRyJwRzpm0ZQ,19.42390735855598,-99.16355691246883,2022-08,2022,gs_00737_QaQXf-bV6vJRyJwRzpm0ZQ
1BYU438YHY-KusHcTYU-pQ,19.42403074717456,-99.16346399336187,2024-09,2024,gs_00738_1BYU438YHY-KusHcTYU-pQ
YuUa_k4HN4zKRAYyik4OHg,19.42454002376368,-99.16362575714932,2024-09,2024,gs_00739_YuUa_k4HN4zKRAYyik4OHg
sjq1Wfb60NKibKNREu5aYQ,19.42511867792492,-99.16339016498458,2019-01,2019,gs_00740_sjq1Wfb60NKibKNREu5aYQ
4spXRbNz6metQUzkUESuzA,19.42529514300794,-99.16348333742164,2019-01,2019,gs_00741_4spXRbNz6metQUzkUESuzA
iKNGzHjCc36C_DLpWTAD6g,19.4254639049164,-99.1635723708398,2019-01,2019,gs_00742_iKNGzHjCc36C_DLpWTAD6g
8CPhlYABeAWh8B_Sm_ulIQ,19.42558914073589,-99.16377172496188,2024-09,2024,gs_00743_8CPhlYABeAWh8B_Sm_ulIQ
8nPbwppl7ejOfUDJil-j9w,19.42575788203973,-99.163729657822,2019-01,2019,gs_00744_8nPbwppl7ejOfUDJil-j9w
vhXUF0ce_Hh37uiQBu88Ew,19.42669236707908,-99.16377417465549,2024-09,2024,gs_00745_vhXUF0ce_Hh37uiQBu88Ew
DXoSmjhdwsNZnaZ6pj4YDw,19.42673216181542,-99.16368607020634,2024-09,2024,gs_00746_DXoSmjhdwsNZnaZ6pj4YDw
s8QjjUbYmDfnPcK8ObkX2w,19.42699803291791,-99.1635867310778,2021-03,2021,gs_00747_s8QjjUbYmDfnPcK8ObkX2w
9E6PB5reIBpJI5MTNBDjKQ,19.42716590868127,-99.16367551119448,2021-03,2021,gs_00748_9E6PB5reIBpJI5MTNBDjKQ
wJGzH4KksNAceamudasCOg,19.42733193829059,-99.16375635102467,2023-01,2023,gs_00749_wJGzH4KksNAceamudasCOg
a15Y9_oHgyLPc2xrYoQmsw,19.42767337944729,-99.16372906651698,2024-09,2024,gs_00750_a15Y9_oHgyLPc2xrYoQmsw
qVBvZKOVCsWmZmZRqvcuQA,19.42771442500232,-99.16364467888783,2024-09,2024,gs_00751_qVBvZKOVCsWmZmZRqvcuQA
0caLOxpTvJL0uyJSl-tzNw,19.42775587720984,-99.16355936215584,2024-09,2024,gs_00752_0caLOxpTvJL0uyJSl-tzNw
7JshKgxhuUTP-e2N7EGQZg,19.42826410185443,-99.163757955996,2024-09,2024,gs_00753_7JshKgxhuUTP-e2N7EGQZg
glKysnsKcmLM3n2FLexJ9Q,19.42854534127278,-99.16371031370282,2024-09,2024,gs_00754_glKysnsKcmLM3n2FLexJ9Q
1qnqB813_IsNbuPJmjvdvw,19.42335271575027,-99.16350276595796,2024-10,2024,gs_00755_1qnqB813_IsNbuPJmjvdvw
r0_6m0cGQhzg2a8YJglCkg,19.42353386624062,-99.16361350870493,2024-09,2024,gs_00756_r0_6m0cGQhzg2a8YJglCkg
QSH1UjIKtMKO10x9bI8cag,19.42383830155898,-99.163487645488,2024-12,2024,gs_00757_QSH1UjIKtMKO10x9bI8cag
sKAIYt_IdrynyhQ-8TeWvA,19.42397374587163,-99.16351366283476,2024-10,2024,gs_00758_sKAIYt_IdrynyhQ-8TeWvA
rYB1_V6ATDUuDzpW5MuqGg,19.4240878240396,-99.16339861216387,2024-09,2024,gs_00759_rYB1_V6ATDUuDzpW5MuqGg
ElS90r3SgDC1TK02D7TwSw,19.42458013494542,-99.1635402714936,2024-09,2024,gs_00760_ElS90r3SgDC1TK02D7TwSw
K5eaMlyDr-XMDuD2uItm0A,19.42462015190968,-99.16345487040084,2024-09,2024,gs_00761_K5eaMlyDr-XMDuD2uItm0A
3FA4EBEiM6h8R50QwKQt_g,19.42502917364436,-99.1633429452686,2019-01,2019,gs_00762_3FA4EBEiM6h8R50QwKQt_g
HG2GTqq2-VuEvUB9MZX-_A,19.42521010903868,-99.16343839839044,2019-01,2019,gs_00763_HG2GTqq2-VuEvUB9MZX-_A
F_O6YmKLyde5ri3TrIAMWA,19.42538674964771,-99.16353165535548,2019-01,2019,gs_00764_F_O6YmKLyde5ri3TrIAMWA
Qt3aqpT0lcJ_8aZHaMMZlQ,19.42555769957177,-99.16362187143574,2019-01,2019,gs_00765_Qt3aqpT0lcJ_8aZHaMMZlQ
pr8j-Cq-rlCsBkSH-Ee-HA,19.42573701445918,-99.1634632331151,2024-09,2024,gs_00766_pr8j-Cq-rlCsBkSH-Ee-HA
E2v9qeNyfHUnwAefSXdOZA,19.42577766537151,-99.1633777476326,2024-09,2024,gs_00767_E2v9qeNyfHUnwAefSXdOZA
6rrJcAzUU54p6NowkVY_Xg,19.42676994023074,-99.16360227392651,2024-09,2024,gs_00768_6rrJcAzUU54p6NowkVY_Xg
4GdOwl7P_4aw7KGw4jVoYA,19.42681004739319,-99.16351332494708,2024-09,2024,gs_00769_4GdOwl7P_4aw7KGw4jVoYA
yiCgt3jh7w26SjX_4uwaPw,19.42779622491229,-99.16347632625532,2024-09,2024,gs_00770_yiCgt3jh7w26SjX_4uwaPw
pYlbNANn19CJGii0sYzIkQ,19.42784018995837,-99.16338577245168,2024-09,2024,gs_00771_pYlbNANn19CJGii0sYzIkQ
mmD6gzmX-njYbgPeSg6HMQ,19.42828251247982,-99.1635504925998,2024-09,2024,gs_00772_mmD6gzmX-njYbgPeSg6HMQ
UzwVvJs0KTyeTGozcZFDBA,19.42838769353082,-99.16346382441814,2024-10,2024,gs_00773_UzwVvJs0KTyeTGozcZFDBA
GG2UPtUO9RXO60w_qeX6AQ,19.42860234370021,-99.16351138209298,2024-09,2024,gs_00774_GG2UPtUO9RXO60w_qeX6AQ
uBicXKQP4s-1oefU5WXyfQ,19.4287681458237,-99.16338171780616,2024-09,2024,gs_00775_uBicXKQP4s-1oefU5WXyfQ
8PC7JBHxQnF0pDVwQE6sWA,19.42337372908333,-99.1633166745621,2024-10,2024,gs_00776_8PC7JBHxQnF0pDVwQE6sWA
ARSdF6oLQvAV2kahRPNMHw,19.42389368754073,-99.163293951675,2024-12,2024,gs_00777_ARSdF6oLQvAV2kahRPNMHw
fBNn7yECpWrsnDXoBSpV5w,19.42413663641246,-99.16332419254476,2024-09,2024,gs_00778_fBNn7yECpWrsnDXoBSpV5w
0dpWcke67GLjK3W_9eMaUg,19.42419605495332,-99.1632107471061,2024-09,2024,gs_00779_0dpWcke67GLjK3W_9eMaUg
d2AtTlzB7BUqIW7xC8xWyg,19.42466047705308,-99.16336870915312,2024-09,2024,gs_00780_d2AtTlzB7BUqIW7xC8xWyg
z-yrsfQr9oHCAoQxJJtNbA,19.42470200508243,-99.16328009831943,2024-09,2024,gs_00781_z-yrsfQr9oHCAoQxJJtNbA
b_l14ZhCjd0v5pfpJ32N4A,19.42494326184912,-99.1632975839576,2019-01,2019,gs_00782_b_l14ZhCjd0v5pfpJ32N4A
1kpoZRsGXhqlXe1JzrneLQ,19.42581821351864,-99.16329251565632,2024-09,2024,gs_00783_1kpoZRsGXhqlXe1JzrneLQ
yGhv6WQmktqd3U1id-Nxkw,19.42585856471175,-99.163207621657,2024-09,2024,gs_00784_yGhv6WQmktqd3U1id-Nxkw
E8GnohjPI4RGYFrslaNj1g,19.42590020871439,-99.16312027807388,2024-09,2024,gs_00785_E8GnohjPI4RGYFrslaNj1g
8Qd6CI4EPVWWp0aNI_F4pA,19.42682955949232,-99.1634706666396,2024-09,2024,gs_00786_8Qd6CI4EPVWWp0aNI_F4pA
6W1pl2tADSkh5PV8byyg_A,19.42686952556397,-99.16338450537494,2024-09,2024,gs_00787_6W1pl2tADSkh5PV8byyg_A
6B8jMDG4poqoKPR9xunLgg,19.42690988118622,-99.163297752901,2024-09,2024,gs_00788_6B8jMDG4poqoKPR9xunLgg
Tcu7175zSyWA2cboK5mXyg,19.42695216314608,-99.16320669246944,2024-09,2024,gs_00789_Tcu7175zSyWA2cboK5mXyg
FRUVoFJcsh5V-tgUyppFQg,19.42748368604718,-99.16299281067506,2024-09,2024,gs_00790_FRUVoFJcsh5V-tgUyppFQg
gAAhn-D5zjNXksxpf7NfXQ,19.42765232433805,-99.16307897151889,2024-09,2024,gs_00791_gAAhn-D5zjNXksxpf7NfXQ
jWXGYRMX0ML2MI-eqmc4bQ,19.42802033642918,-99.16326937041774,2024-09,2024,gs_00792_jWXGYRMX0ML2MI-eqmc4bQ
AdPpzYk19YxPGk1QBUcC7Q,19.42818602459697,-99.1633569675785,2024-09,2024,gs_00793_AdPpzYk19YxPGk1QBUcC7Q
GgPSmVHDuDRPs5f0Ss2M2A,19.42840268931014,-99.16333095028256,2024-09,2024,gs_00794_GgPSmVHDuDRPs5f0Ss2M2A
RqYr39l9Ibv6z2M6yCDrjg,19.42854276231789,-99.16319976579892,2024-09,2024,gs_00795_RqYr39l9Ibv6z2M6yCDrjg
-PBLHHoG9FcxW9oXD8FdWA,19.42899461010166,-99.16328820760044,2024-09,2024,gs_00796_-PBLHHoG9FcxW9oXD8FdWA
DzSYjE9TRdRRwWRCZsLFtQ,19.42341545290111,-99.16313354010116,2024-10,2024,gs_00797_DzSYjE9TRdRRwWRCZsLFtQ
dE_6UBRWfbW8FmXSIcW-Pw,19.42343999652589,-99.16305895178516,2021-05,2021,gs_00798_dE_6UBRWfbW8FmXSIcW-Pw
Y1GpUZeWFGj5m2-WTPlDtw,19.42392367125478,-99.16306739892956,2024-12,2024,gs_00799_Y1GpUZeWFGj5m2-WTPlDtw
bWnL2pU_wK3BXflM9_uKYA,19.42423068132138,-99.16308437769256,2024-09,2024,gs_00800_bWnL2pU_wK3BXflM9_uKYA
DjGYZVLpTrjMETRPMZ_xww,19.42436896957278,-99.16302930231528,2019-01,2019,gs_00801_DjGYZVLpTrjMETRPMZ_xww
MiiGVyvi6L_s2anmu35yCw,19.42461299633177,-99.16313244197144,2019-01,2019,gs_00802_MiiGVyvi6L_s2anmu35yCw
m2-_sl6Wx_q1ZrwSV5PU5A,19.4247643933939,-99.16314705554524,2024-09,2024,gs_00803_m2-_sl6Wx_q1ZrwSV5PU5A
hTpIJ6gCAAcfIXys5ip2Tg,19.42594277731529,-99.1630306538578,2024-09,2024,gs_00804_hTpIJ6gCAAcfIXys5ip2Tg
U5ObWUUx3BDKYi3LTLDwTQ,19.4259837234716,-99.16294466200856,2024-09,2024,gs_00805_U5ObWUUx3BDKYi3LTLDwTQ
bI-gVJs1vb303yw5BhrWHQ,19.4269929298196,-99.1631207004314,2024-09,2024,gs_00806_bI-gVJs1vb303yw5BhrWHQ
6HeIzUACMobB3Lna7O9ThA,19.42703519051019,-99.16303183645756,2024-09,2024,gs_00807_6HeIzUACMobB3Lna7O9ThA
mAHgIpT15PXi1eRKnvNsiw,19.42756976077232,-99.16303673579957,2024-09,2024,gs_00808_mAHgIpT15PXi1eRKnvNsiw
BMYWwDOEwhKy5QhAt0gu8g,19.42773331642436,-99.16312027807388,2024-09,2024,gs_00809_BMYWwDOEwhKy5QhAt0gu8g
F1YWsMETznUS5u5JDn_qRg,19.42793839789404,-99.1632254451658,2024-09,2024,gs_00810_F1YWsMETznUS5u5JDn_qRg
lHoJvktD7Llo5Fyv-7t5Kg,19.42810206504313,-99.1633121130898,2024-09,2024,gs_00811_lHoJvktD7Llo5Fyv-7t5Kg
wF_RhZxe5B0rhU_RzE2K-Q,19.42846854861254,-99.16326083878036,2024-09,2024,gs_00812_wF_RhZxe5B0rhU_RzE2K-Q
L0rO-QpziFVmOaIQIXFklw,19.42862289020216,-99.1631515325366,2024-09,2024,gs_00813_L0rO-QpziFVmOaIQIXFklw
x0FnAxQvbhiwdwTxSzF5sQ,19.42876569205147,-99.16303572214257,2024-09,2024,gs_00814_x0FnAxQvbhiwdwTxSzF5sQ
XRFL-kBp1rsMkJ8Y2xjdeQ,19.42908120201557,-99.16312467059224,2024-09,2024,gs_00815_XRFL-kBp1rsMkJ8Y2xjdeQ
4dSLG7FQXFdZRkZtmFokaA,19.42918874180505,-99.16312821839568,2024-09,2024,gs_00816_4dSLG7FQXFdZRkZtmFokaA
r2eKWfF0C97FutudvFob9A,19.42307759160422,-99.16288037936027,2021-03,2021,gs_00817_r2eKWfF0C97FutudvFob9A
7uVG6HuremvswxVXbCkDQg,19.42351565988118,-99.16290876170586,2019-03,2019,gs_00818_7uVG6HuremvswxVXbCkDQg
G1fZ9221CUL3ebJyU5AcAw,19.42390218565549,-99.16293579252051,2019-01,2019,gs_00819_G1fZ9221CUL3ebJyU5AcAw
2050nvuiQlvjHhSWEmPaJQ,19.42398905263724,-99.1629409452706,2019-01,2019,gs_00820_2050nvuiQlvjHhSWEmPaJQ
Pc_xgbXOl-ZvDoi_X971Vw,19.42422960126367,-99.1628995543367,2024-09,2024,gs_00821_Pc_xgbXOl-ZvDoi_X971Vw
izU9vAWzACqYVAAEmCbDvA,19.42453367939677,-99.16309890678612,2019-01,2019,gs_00822_izU9vAWzACqYVAAEmCbDvA
VC4zNwr-uYPvJymxQOI11Q,19.42485471374811,-99.1629542072682,2024-09,2024,gs_00823_VC4zNwr-uYPvJymxQOI11Q
ikBmRruaDyTPliNceFNCpg,19.42489271426719,-99.16287311483296,2024-09,2024,gs_00824_ikBmRruaDyTPliNceFNCpg
vwXKOiIznK9FLP6Ipdehcg,19.42492940911442,-99.16279472555684,2024-09,2024,gs_00825_vwXKOiIznK9FLP6Ipdehcg
nWSH2txkzKcxJr6o6Hayog,19.42602175862539,-99.16286466770902,2024-09,2024,gs_00826_nWSH2txkzKcxJr6o6Hayog
h8SmpH-WPCZE4PI7DDHw-w,19.4260625078009,-99.16277901392236,2024-09,2024,gs_00827_h8SmpH-WPCZE4PI7DDHw-w
Tcn09LEi2AUDB0YI74GAHg,19.42669634289081,-99.16259199502568,2024-09,2024,gs_00828_Tcn09LEi2AUDB0YI74GAHg
8SvnPNtQ2ecBVR56WMvmGw,19.42686807289612,-99.1626792535623,2024-09,2024,gs_00829_8SvnPNtQ2ecBVR56WMvmGw
MOxDElQOG88Kx_Mr9hrUAg,19.42707825597183,-99.16294128315586,2024-09,2024,gs_00830_MOxDElQOG88Kx_Mr9hrUAg
0NycNeJUHgghAbV4OJ_d8Q,19.42724229821618,-99.16286948256956,2024-09,2024,gs_00831_0NycNeJUHgghAbV4OJ_d8Q
t-xlSj_qR0HuQHntSw5-NA,19.42740111818368,-99.16295065947249,2024-09,2024,gs_00832_t-xlSj_qR0HuQHntSw5-NA
0XJTT_cK_il8dwXZUuIdew,19.42789652091613,-99.16320365149204,2024-09,2024,gs_00833_0XJTT_cK_il8dwXZUuIdew
5FZzzlMTmNq2c8F5WjKrgg,19.42870152372512,-99.1631026235314,2024-09,2024,gs_00834_5FZzzlMTmNq2c8F5WjKrgg
3c1n8fma_aJXx6IAdD-FaA,19.4288131858813,-99.16295184207102,2024-09,2024,gs_00835_3c1n8fma_aJXx6IAdD-FaA
ll86wcEmWes8YqexKUImLQ,19.42894106422923,-99.1629603736755,2021-03,2021,gs_00836_ll86wcEmWes8YqexKUImLQ
8KYRZCmqZlxdjVDaQHxRxw,19.42917947534287,-99.162923966538,2022-04,2022,gs_00837_8KYRZCmqZlxdjVDaQHxRxw
YfBv7VaEyVbV5tFIsncVew,19.42333428913253,-99.16261927914648,2021-03,2021,gs_00838_YfBv7VaEyVbV5tFIsncVew
gw_XFUuVUjJxI58rGQdQNQ,19.42360489887739,-99.16274438076042,2024-10,2024,gs_00839_gw_XFUuVUjJxI58rGQdQNQ
ADenkLPG4FJIQeL80vJ58g,19.42365111081097,-99.16265914945735,2024-10,2024,gs_00840_ADenkLPG4FJIQeL80vJ58g
Iil8PjSmOFtjCL24RX2E0A,19.42394702193077,-99.16266624502325,2024-12,2024,gs_00841_Iil8PjSmOFtjCL24RX2E0A
fTVEn2Ur_SCXKn6_4X5F0Q,19.42418276256683,-99.16271278857212,2022-08,2022,gs_00842_fTVEn2Ur_SCXKn6_4X5F0Q
X_IwJ7yC1EHq6OWJNTCyOg,19.42436617909188,-99.1626952185904,2024-09,2024,gs_00843_X_IwJ7yC1EHq6OWJNTCyOg
Kky-GeP51cgUIOcVPTQ-aA,19.42451570552749,-99.1626277262446,2024-09,2024,gs_00844_Kky-GeP51cgUIOcVPTQ-aA
PBRK2GdGBbhXZ-W38PiRtg,19.42496962275169,-99.16270898737382,2024-09,2024,gs_00845_PBRK2GdGBbhXZ-W38PiRtg
AhRaovJss7qELSqt0mA1rw,19.42501192987515,-99.16262096856605,2024-09,2024,gs_00846_AhRaovJss7qELSqt0mA1rw
OgxO77ya6rmhcAyfSUFl4w,19.42504441713233,-99.16255643276452,2019-05,2019,gs_00847_OgxO77ya6rmhcAyfSUFl4w
gxIyPTsPp1r89jb0p-742g,19.42608840610332,-99.16227953759837,2024-09,2024,gs_00848_gxIyPTsPp1r89jb0p-742g
_mVf89inNnwZsgPlUMdc_Q,19.42610305574921,-99.16269378258248,2024-09,2024,gs_00849__mVf89inNnwZsgPlUMdc_Q
NvhFekT5XA0mfnGngSRmPQ,19.42651067096038,-99.16249772550329,2024-09,2024,gs_00850_NvhFekT5XA0mfnGngSRmPQ
-SqNCj2gZ1DEGI9YyPluFA,19.42660438044738,-99.16254536707602,2024-09,2024,gs_00851_-SqNCj2gZ1DEGI9YyPluFA
c1V-JpUBxpe_ACH6st3Wdw,19.42677900504231,-99.16263406156877,2024-09,2024,gs_00852_c1V-JpUBxpe_ACH6st3Wdw
SSh5PdsLJfztdJMb_xxPOg,19.4269493391109,-99.16272047544032,2024-09,2024,gs_00853_SSh5PdsLJfztdJMb_xxPOg
bhPu9JQWPRmPNcxTSHKmpw,19.42720921989301,-99.16266311959534,2024-09,2024,gs_00854_bhPu9JQWPRmPNcxTSHKmpw
8aNjQaSc0J03X1lMfMHZ3g,19.4288695640864,-99.1628185464279,2024-09,2024,gs_00855_8aNjQaSc0J03X1lMfMHZ3g
B2W8VCeH0awMFZiOydGZxg,19.42890627615981,-99.16273094985532,2024-09,2024,gs_00856_B2W8VCeH0awMFZiOydGZxg
6nuM4BtKA0mheTwlW7gcKA,19.42894103617631,-99.16264816822569,2024-09,2024,gs_00857_6nuM4BtKA0mheTwlW7gcKA
vPqDN_MnrCyTWPBlVD87bA,19.42925160464907,-99.16277436800952,2024-09,2024,gs_00858_vPqDN_MnrCyTWPBlVD87bA
cjP5XvRDBn53pMyjaLK02g,19.42369488628576,-99.16257231329725,2024-10,2024,gs_00859_cjP5XvRDBn53pMyjaLK02g
KzLE9fSXUI5_7810NuqM3w,19.42373500939889,-99.16248480146449,2024-10,2024,gs_00860_KzLE9fSXUI5_7810NuqM3w
fzAUMvXq6-yBl3H7Pe2PAQ,19.42398668545326,-99.16247939533125,2024-09,2024,gs_00861_fzAUMvXq6-yBl3H7Pe2PAQ
OvjFI-d0bwhpBGjZC6OwPg,19.42412424080376,-99.16262899330935,2024-09,2024,gs_00862_OvjFI-d0bwhpBGjZC6OwPg
KCE7cItx7diKbBpyegcReA,19.42439079216854,-99.16262992249024,2024-09,2024,gs_00863_KCE7cItx7diKbBpyegcReA
us9nUBtUmi7-KPxgnwcN0g,19.42457209196759,-99.16255288498635,2024-09,2024,gs_00864_us9nUBtUmi7-KPxgnwcN0g
9MY_LmbAoVGhaztBhfk8dA,19.42481027723743,-99.16250845330175,2024-09,2024,gs_00865_9MY_LmbAoVGhaztBhfk8dA
H3iddazdyQYBIlFnMRpyxA,19.42499035368912,-99.1624413834671,2024-09,2024,gs_00866_H3iddazdyQYBIlFnMRpyxA
JD1HHly_MPYM334S6-h8fg,19.42507720830589,-99.1624912212482,2024-09,2024,gs_00867_JD1HHly_MPYM334S6-h8fg
_wR5I5ri4DQzKBj6laQSaA,19.42529151025729,-99.16231459291276,2024-09,2024,gs_00868__wR5I5ri4DQzKBj6laQSaA
EjpUMp6gsA8ClDVjk9VWFg,19.42546480393819,-99.1622394140645,2024-09,2024,gs_00869_EjpUMp6gsA8ClDVjk9VWFg
eUAxI8z2tjgsdYPy4Fk-CA,19.42592461372073,-99.16218822491156,2024-09,2024,gs_00870_eUAxI8z2tjgsdYPy4Fk-CA
mEsvAnBWdD6z49TaiSqzWw,19.42614260622377,-99.1626104941654,2024-09,2024,gs_00871_mEsvAnBWdD6z49TaiSqzWw
9eKFUPIWbfqSRr15KTht_g,19.42619693406486,-99.16249637396972,2024-09,2024,gs_00872_9eKFUPIWbfqSRr15KTht_g
HFOR-rIUkC8vaj87pH90zQ,19.42642484445999,-99.16245422302808,2024-09,2024,gs_00873_HFOR-rIUkC8vaj87pH90zQ
rQUzy42NW6womAlKrugi9g,19.42726083391184,-99.16255288498635,2024-09,2024,gs_00874_rQUzy42NW6womAlKrugi9g
Jnz2NBZmFnNj0nEkX0j1dA,19.42730407459235,-99.16246064280936,2024-09,2024,gs_00875_Jnz2NBZmFnNj0nEkX0j1dA
4gvTu473zUdPQRG-CsZ-mQ,19.42735879643108,-99.162344073177,2024-09,2024,gs_00876_4gvTu473zUdPQRG-CsZ-mQ
tebHicbO2JOhn2UVxc88tw,19.42711893691444,-99.16285520693124,2024-09,2024,gs_00877_tebHicbO2JOhn2UVxc88tw
IR9II2usgzdu21I3hRMzSg,19.42833869639544,-99.1621308694473,2024-09,2024,gs_00878_IR9II2usgzdu21I3hRMzSg
k8y_z98aM8ItC51igqqFhQ,19.42850307503033,-99.16221415736614,2024-09,2024,gs_00879_k8y_z98aM8ItC51igqqFhQ
8yLUb0GkG5YEtzBD5RhU7w,19.42866806593712,-99.16229778325406,2024-09,2024,gs_00880_8yLUb0GkG5YEtzBD5RhU7w
32FR5ocHP1LqYJyP6rOQxQ,19.42881920479667,-99.16237439815926,2024-09,2024,gs_00881_32FR5ocHP1LqYJyP6rOQxQ
hYWoCw57qdPGjCzs2fD41g,19.42900969970141,-99.1624817605145,2022-07,2022,gs_00882_hYWoCw57qdPGjCzs2fD41g
cwc-S6q1P2w1nRKxuEhgWg,19.42937308357947,-99.16251487308736,2024-09,2024,gs_00883_cwc-S6q1P2w1nRKxuEhgWg
Lyhe6ZmrfyBBEcqvHDnElw,19.42380417741071,-99.16229592490004,2024-10,2024,gs_00884_Lyhe6ZmrfyBBEcqvHDnElw
cPZDVm2rxcj2G24FSxT13w,19.42398183547797,-99.16236552873428,2024-12,2024,gs_00885_cPZDVm2rxcj2G24FSxT13w
CzG0O_rX5N82sXfM8UN1nQ,19.42400371695932,-99.1622617987704,2024-12,2024,gs_00886_CzG0O_rX5N82sXfM8UN1nQ
xBXlybLXzzl5jY7EVOgNGg,19.42446761069932,-99.16259731669555,2024-09,2024,gs_00887_xBXlybLXzzl5jY7EVOgNGg
PtGHkUJiUTvUgfV1gsw0iQ,19.42467299392729,-99.1625098893064,2024-09,2024,gs_00888_PtGHkUJiUTvUgfV1gsw0iQ
qTbrTQwcImSASUOkGzJz4w,19.42480692204869,-99.16243969405132,2024-09,2024,gs_00889_qTbrTQwcImSASUOkGzJz4w
1rG8jDgcBtaZHQIa2urXnw,19.42497269446244,-99.16234077882028,2024-09,2024,gs_00890_1rG8jDgcBtaZHQIa2urXnw
iuLyZIyMynxaWxK-HsokbA,19.42516350868662,-99.1623085110258,2023-01,2023,gs_00891_iuLyZIyMynxaWxK-HsokbA
oKWafhDspsP3w5x3rfE4Ow,19.4253809849713,-99.16227531406751,2024-09,2024,gs_00892_oKWafhDspsP3w5x3rfE4Ow
vE1XD7U-dAloTvmNWT1YkQ,19.42554090337201,-99.16220680842864,2024-09,2024,gs_00893_vE1XD7U-dAloTvmNWT1YkQ
rYnGjRYbEhn-CpPiiURVAg,19.42584458837278,-99.16214024566912,2024-09,2024,gs_00894_rYnGjRYbEhn-CpPiiURVAg
Bl4rj7PL3nYTcn6GIiuitg,19.42600601342406,-99.16223569735924,2024-09,2024,gs_00895_Bl4rj7PL3nYTcn6GIiuitg
sk2WX2KLuPymJF4K-jgJhA,19.42617500788185,-99.16232548962807,2024-09,2024,gs_00896_sk2WX2KLuPymJF4K-jgJhA
Ugu9Ej14hR5LCNvNCUW9bA,19.42628796291848,-99.1622788618334,2023-01,2023,gs_00897_Ugu9Ej14hR5LCNvNCUW9bA
M7N26kKHPyjy6G2l7rngIw,19.42739891630945,-99.16225841994644,2024-09,2024,gs_00898_M7N26kKHPyjy6G2l7rngIw
MB8rH8g2kK_VrSdrFc0Hog,19.42743963975644,-99.16217149974985,2024-09,2024,gs_00899_MB8rH8g2kK_VrSdrFc0Hog
2XwnEfPXYkFaWWL9I_WX1g,19.42808968524127,-99.16200179868514,2024-09,2024,gs_00900_2XwnEfPXYkFaWWL9I_WX1g
ae6hCfm1ZcAxvPvbQ_7g1A,19.42825479643563,-99.16208838081612,2024-09,2024,gs_00901_ae6hCfm1ZcAxvPvbQ_7g1A
yxKnqx6pWUWL1yBIlDbW3w,19.42842075084451,-99.1621725133959,2024-09,2024,gs_00902_yxKnqx6pWUWL1yBIlDbW3w
bynqw6ZEdRyob9MB2eGd9Q,19.42858574177389,-99.16225613924038,2024-09,2024,gs_00903_bynqw6ZEdRyob9MB2eGd9Q
FJizymkpBRBgfAF1B3cRKQ,19.42874451102583,-99.16233655528625,2024-09,2024,gs_00904_FJizymkpBRBgfAF1B3cRKQ
1_oFyXkPYkkMSuU-QmSaWQ,19.42905112575068,-99.1623934040732,2024-09,2024,gs_00905_1_oFyXkPYkkMSuU-QmSaWQ
UWN6XmbC8IEwuL_YSOSEqA,19.42945577741284,-99.16233773787576,2024-09,2024,gs_00906_UWN6XmbC8IEwuL_YSOSEqA
94kL_qky6Nq2V_mPPA8jqg,19.42402503343935,-99.16216034964395,2024-12,2024,gs_00907_94kL_qky6Nq2V_mPPA8jqg
as-_g97Hi5pvGKDZVPGQgQ,19.4240463370455,-99.16205915405708,2024-12,2024,gs_00908_as-_g97Hi5pvGKDZVPGQgQ
Zt-pyuLxh8DyqaTIy4hHtQ,19.42473719909965,-99.16248133816036,2022-05,2022,gs_00909_Zt-pyuLxh8DyqaTIy4hHtQ
qaAhm7MJf1qSnPK06DTSyQ,19.42489101346829,-99.1623895184193,2024-09,2024,gs_00910_qaAhm7MJf1qSnPK06DTSyQ
mBu4acN3q6NgSaonHWKeGw,19.42505270999134,-99.16229296842783,2024-09,2024,gs_00911_mBu4acN3q6NgSaonHWKeGw
t7QomfrcX3ig2SpqsI2E_w,19.42522109251743,-99.16217623009824,2023-01,2023,gs_00912_t7QomfrcX3ig2SpqsI2E_w
vlyfLs5JmqP419jRwn8WQA,19.4254237673121,-99.16210324761094,2024-09,2024,gs_00913_vlyfLs5JmqP419jRwn8WQA
u-TmXSKo-Czp-W5sw2K6wQ,19.42562655914324,-99.16217014822178,2024-09,2024,gs_00914_u-TmXSKo-Czp-W5sw2K6wQ
Lq_jxqS-BT5GxHTuWh4iQQ,19.42578707750454,-99.16210578172398,2024-09,2024,gs_00915_Lq_jxqS-BT5GxHTuWh4iQQ
lA6sLokkbE9_zrE6PcpZmA,19.42633767464603,-99.16216178564235,2023-01,2023,gs_00916_lA6sLokkbE9_zrE6PcpZmA
LNvwXxiQklFrwWCmgCw_Dg,19.42638184785994,-99.16206532039551,2023-01,2023,gs_00917_LNvwXxiQklFrwWCmgCw_Dg
EnSIVr-_ylvJWg3HbrGyGw,19.42642269059618,-99.16197603523985,2023-01,2023,gs_00918_EnSIVr-_ylvJWg3HbrGyGw
zQLYewgEIFw-QDOxejUqHA,19.4274819684925,-99.1620812853014,2024-09,2024,gs_00919_zQLYewgEIFw-QDOxejUqHA
IzJVKZXGoO1elfNJCEad9w,19.42792356303389,-99.1619103173742,2024-09,2024,gs_00920_IzJVKZXGoO1elfNJCEad9w
VOCNlM0ki9w1LgoF6-RYSg,19.4281715130552,-99.1620461456186,2024-09,2024,gs_00921_VOCNlM0ki9w1LgoF6-RYSg
XiRk1MiqN6gDi9KgTyzUfA,19.42917936790738,-99.16212107087428,2024-09,2024,gs_00922_XiRk1MiqN6gDi9KgTyzUfA
jOHLmzKccy1Hx3v1Jmd1Sg,19.42955502490557,-99.16212132428564,2024-09,2024,gs_00923_jOHLmzKccy1Hx3v1Jmd1Sg
4EZQDIhoXHHvm-BbeK9_LQ,19.42407039285126,-99.16194976498116,2024-12,2024,gs_00924_4EZQDIhoXHHvm-BbeK9_LQ
8Uys56BsOS4qEU40tR-4yA,19.42409301145417,-99.16185456704196,2024-12,2024,gs_00925_8Uys56BsOS4qEU40tR-4yA
qOSzjN895W8ZeDtP7HJ5nA,19.42477189357487,-99.16157150799872,2024-09,2024,gs_00926_qOSzjN895W8ZeDtP7HJ5nA
7Di5F6jIMb3_ar35XENSKg,19.42493522339559,-99.1616577517852,2024-09,2024,gs_00927_7Di5F6jIMb3_ar35XENSKg
gHRQP9oH5Mk25B8EGQrjqg,19.42509960651419,-99.16174450248474,2024-09,2024,gs_00928_gHRQP9oH5Mk25B8EGQrjqg
g40m9nhhrdFAJRPd6Aum2g,19.42527116609565,-99.161835138905,2024-09,2024,gs_00929_g40m9nhhrdFAJRPd6Aum2g
YOvCAlJAK61NcTRfrJoscQ,19.42536993724786,-99.16188759488564,2023-04,2023,gs_00930_YOvCAlJAK61NcTRfrJoscQ
gGtosd-kdtL9Y0Bs-Lwbeg,19.42553895701667,-99.16197155831412,2023-04,2023,gs_00931_gGtosd-kdtL9Y0Bs-Lwbeg
PJTXb803-jDqzNtLCthAbg,19.42576571751161,-99.16195035627308,2024-09,2024,gs_00932_PJTXb803-jDqzNtLCthAbg
f0Wa49kh8kpDZCJiqe491g,19.42593563306108,-99.1618744175346,2024-09,2024,gs_00933_f0Wa49kh8kpDZCJiqe491g
abHIEBCnuaHYPLuE1rXM9w,19.426173781999,-99.16192670460045,2024-09,2024,gs_00934_abHIEBCnuaHYPLuE1rXM9w
UGl72rVsxiO5J6JhsCi14Q,19.42634790242527,-99.1618511882352,2024-09,2024,gs_00935_UGl72rVsxiO5J6JhsCi14Q
ueBRNe6M0ktDP7aV8bfiSw,19.42647115315726,-99.16187120766736,2023-01,2023,gs_00936_ueBRNe6M0ktDP7aV8bfiSw
6LfBVMfkgFCNsVe8QGIoCw,19.42669327386388,-99.16169111742776,2024-09,2024,gs_00937_6LfBVMfkgFCNsVe8QGIoCw
RgKOz73fjJmf6pmeUHjksg,19.4268732427924,-99.1616101952098,2024-09,2024,gs_00938_RgKOz73fjJmf6pmeUHjksg
L_h6E2qJSSAeLD2m_hePbA,19.42733589263331,-99.16159532850638,2023-01,2023,gs_00939_L_h6E2qJSSAeLD2m_hePbA
sHgkCDukBbf0MVSOQPG3Qw,19.42752319701277,-99.16199326718268,2024-09,2024,gs_00940_sHgkCDukBbf0MVSOQPG3Qw
QG-x2xKBYkkXIKTFQEZpCw,19.4275637148968,-99.16190685409484,2024-09,2024,gs_00941_QG-x2xKBYkkXIKTFQEZpCw
uHjnDAVuEJRoKohb-i-uOQ,19.42783949565185,-99.16186402770168,2024-09,2024,gs_00942_uHjnDAVuEJRoKohb-i-uOQ
Bt93qJWWPYc4e7-70dJr8w,19.42800675260866,-99.16195618472204,2024-09,2024,gs_00943_Bt93qJWWPYc4e7-70dJr8w
gejRYPTp-N82Vdk1K2MDAA,19.42964037187997,-99.16193084364264,2024-09,2024,gs_00944_gejRYPTp-N82Vdk1K2MDAA
9H-xe5dp7J7Qdaw7GxGSfg,19.42980115447149,-99.16187906339528,2024-09,2024,gs_00945_9H-xe5dp7J7Qdaw7GxGSfg
TqVVDXTyxfnapS3TGzVYQw,19.42392958395919,-99.16173293008804,2024-10,2024,gs_00946_TqVVDXTyxfnapS3TGzVYQw
mYMEd2wFQVPCOyq0ICDfcA,19.42413296658795,-99.16167971397871,2024-12,2024,gs_00947_mYMEd2wFQVPCOyq0ICDfcA
OXDvZhhhjGDvRQjPetgTuA,19.42469350861161,-99.1615302022416,2024-09,2024,gs_00948_OXDvZhhhjGDvRQjPetgTuA
5k1_5tgQClloah5MuxbcBw,19.42485220112057,-99.16161391188606,2024-09,2024,gs_00949_5k1_5tgQClloah5MuxbcBw
43p9zJtWQ2BZprQVNl7FuA,19.42501719230906,-99.16170108488822,2024-09,2024,gs_00950_43p9zJtWQ2BZprQVNl7FuA
69GTmXlDtvrcisnslEw6Og,19.42518393902632,-99.1617891026862,2024-09,2024,gs_00951_69GTmXlDtvrcisnslEw6Og
_bzTmyGNHaPw7SMkdh6MRg,19.42540857170613,-99.16177085714624,2024-09,2024,gs_00952__bzTmyGNHaPw7SMkdh6MRg
LZbJs0kIVyYq2KbaV9RSlg,19.42544681967442,-99.16168486664807,2024-09,2024,gs_00953_LZbJs0kIVyYq2KbaV9RSlg
P8ZvPe2iqbaNBDNusYGbQQ,19.42585099639078,-99.1619122601895,2024-09,2024,gs_00954_P8ZvPe2iqbaNBDNusYGbQQ
